id,municipio,municipio_uf,latitude,longitude,uf
879,ABADIA DE GOIAS,ABADIA DE GOIAS - GO,-16.75,-49.43,GO
1338,ABADIA DOS DOURADOS,ABADIA DOS DOURADOS - MG,-18.48,-47.4,MG
880,ABADIANIA,ABADIANIA - GO,-16.2,-48.7,GO
1339,ABAETE,ABAETE - MG,-19.16,-45.44,MG
2394,ABAETETUBA,ABAETETUBA - PA,-1.71,-48.88,PA
617,ABAIARA,ABAIARA - CE,-7.35,-39.04,CE
202,ABAIRA,ABAIRA - BA,-13.25,-41.66,BA
203,ABARE,ABARE - BA,-8.72,-39.11,BA
3166,ABATIA,ABATIA - PR,-23.3,-50.31,PR
4358,ABDON BATISTA,ABDON BATISTA - SC,-27.61,-51.02,SC
2395,ABEL FIGUEIREDO,ABEL FIGUEIREDO - PA,-4.95,-48.39,PA
4359,ABELARDO LUZ,ABELARDO LUZ - SC,-26.56,-52.32,SC
1340,ABRE CAMPO,ABRE CAMPO - MG,-20.3,-42.47,MG
2760,ABREU E LIMA,ABREU E LIMA - PE,-7.91,-34.9,PE
5371,ABREULANDIA,ABREULANDIA - TO,-9.62,-49.15,TO
1341,ACAIACA,ACAIACA - MG,-20.36,-43.14,MG
1121,ACAILANDIA,ACAILANDIA - MA,-4.94,-47.5,MA
204,ACAJUTIBA,ACAJUTIBA - BA,-11.66,-38.01,BA
2396,ACARA,ACARA - PA,-1.96,-48.19,PA
618,ACARAPE,ACARAPE - CE,-4.22,-38.7,CE
619,ACARAU,ACARAU - CE,-2.88,-40.12,CE
3656,ACARI,ACARI - RN,-6.43,-36.63,RN
2945,ACAUA,ACAUA - PI,-8.21,-41.08,PI
620,ACOPIARA,ACOPIARA - CE,-6.09,-39.45,CE
2268,ACORIZAL,ACORIZAL - MT,-15.2,-56.36,MT
1,ACRELANDIA,ACRELANDIA - AC,-9.82,-66.88,AC
881,ACREUNA,ACREUNA - GO,-17.39,-50.37,GO
3657,ACU,ACU - RN,-5.57,-36.9,RN
1342,ACUCENA,ACUCENA - MG,-19.07,-42.54,MG
4726,ADAMANTINA,ADAMANTINA - SP,-21.68,-51.07,SP
882,ADELANDIA,ADELANDIA - GO,-16.41,-50.16,GO
4727,ADOLFO,ADOLFO - SP,-21.23,-49.64,SP
3167,ADRIANOPOLIS,ADRIANOPOLIS - PR,-24.65,-48.99,PR
205,ADUSTINA,ADUSTINA - BA,-10.53,-38.1,BA
2761,AFOGADOS DA INGAZEIRA,AFOGADOS DA INGAZEIRA - PE,-7.75,-37.63,PE
3658,AFONSO BEZERRA,AFONSO BEZERRA - RN,-5.49,-36.5,RN
802,AFONSO CLAUDIO,AFONSO CLAUDIO - ES,-20.07,-41.12,ES
1122,AFONSO CUNHA,AFONSO CUNHA - MA,-4.13,-43.32,MA
2762,AFRANIO,AFRANIO - PE,-8.51,-41,PE
2397,AFUA,AFUA - PA,-0.15,-50.38,PA
2763,AGRESTINA,AGRESTINA - PE,-8.45,-35.94,PE
2946,AGRICOLANDIA,AGRICOLANDIA - PI,-5.79,-42.66,PI
4360,AGROLANDIA,AGROLANDIA - SC,-27.41,-49.82,SC
4361,AGRONOMICA,AGRONOMICA - SC,-27.26,-49.71,SC
2398,AGUA AZUL DO NORTE,AGUA AZUL DO NORTE - PA,-6.79,-50.46,PA
1343,AGUA BOA,AGUA BOA - MG,-17.99,-42.38,MG
2269,AGUA BOA,AGUA BOA - MT,-14.05,-52.15,MT
23,AGUA BRANCA,AGUA BRANCA - AL,-9.26,-37.93,AL
2537,AGUA BRANCA,AGUA BRANCA - PB,-7.51,-37.64,PB
2947,AGUA BRANCA,AGUA BRANCA - PI,-5.89,-42.63,PI
2191,AGUA CLARA,AGUA CLARA - MS,-20.44,-52.87,MS
1344,AGUA COMPRIDA,AGUA COMPRIDA - MG,-20.05,-48.1,MG
4362,AGUA DOCE,AGUA DOCE - SC,-26.99,-51.55,SC
1123,AGUA DOCE DO MARANHAO,AGUA DOCE DO MARANHAO - MA,-2.84,-42.11,MA
803,AGUA DOCE DO NORTE,AGUA DOCE DO NORTE - ES,-18.54,-40.97,ES
206,AGUA FRIA,AGUA FRIA - BA,-11.86,-38.76,BA
883,AGUA FRIA DE GOIAS,AGUA FRIA DE GOIAS - GO,-14.98,-47.78,GO
884,AGUA LIMPA,AGUA LIMPA - GO,-18.07,-48.76,GO
3659,AGUA NOVA,AGUA NOVA - RN,-6.2,-38.29,RN
2764,AGUA PRETA,AGUA PRETA - PE,-8.7,-35.53,PE
3889,AGUA SANTA,AGUA SANTA - RS,-28.17,-52.03,RS
4728,AGUAI,AGUAI - SP,-22.05,-46.97,SP
1345,AGUANIL,AGUANIL - MG,-20.94,-45.39,MG
2765,AGUAS BELAS,AGUAS BELAS - PE,-9.11,-37.12,PE
4729,AGUAS DA PRATA,AGUAS DA PRATA - SP,-21.93,-46.71,SP
4363,AGUAS DE CHAPECO,AGUAS DE CHAPECO - SC,-27.07,-52.98,SC
4730,AGUAS DE LINDOIA,AGUAS DE LINDOIA - SP,-22.47,-46.63,SP
4731,AGUAS DE SANTA BARBARA,AGUAS DE SANTA BARBARA - SP,-22.88,-49.23,SP
4732,AGUAS DE SAO PEDRO,AGUAS DE SAO PEDRO - SP,-22.59,-47.87,SP
1346,AGUAS FORMOSAS,AGUAS FORMOSAS - MG,-17.08,-40.93,MG
4364,AGUAS FRIAS,AGUAS FRIAS - SC,-26.88,-52.85,SC
885,AGUAS LINDAS DE GOIAS,AGUAS LINDAS DE GOIAS - GO,-15.76,-48.28,GO
4365,AGUAS MORNAS,AGUAS MORNAS - SC,-27.69,-48.82,SC
1347,AGUAS VERMELHAS,AGUAS VERMELHAS - MG,-15.74,-41.46,MG
3890,AGUDO,AGUDO - RS,-29.64,-53.24,RS
4733,AGUDOS,AGUDOS - SP,-22.46,-48.98,SP
3168,AGUDOS DO SUL,AGUDOS DO SUL - PR,-25.99,-49.33,PR
804,AGUIA BRANCA,AGUIA BRANCA - ES,-18.98,-40.74,ES
2538,AGUIAR,AGUIAR - PB,-7.09,-38.17,PB
5372,AGUIARNOPOLIS,AGUIARNOPOLIS - TO,-6.56,-47.46,TO
1348,AIMORES,AIMORES - MG,-19.49,-41.06,MG
207,AIQUARA,AIQUARA - BA,-14.12,-39.88,BA
621,AIUABA,AIUABA - CE,-6.57,-40.12,CE
1349,AIURUOCA,AIURUOCA - MG,-21.97,-44.6,MG
3891,AJURICABA,AJURICABA - RS,-28.23,-53.77,RS
1350,ALAGOA,ALAGOA - MG,-22.17,-44.64,MG
2539,ALAGOA GRANDE,ALAGOA GRANDE - PB,-7.08,-35.63,PB
2540,ALAGOA NOVA,ALAGOA NOVA - PB,-7.07,-35.75,PB
2541,ALAGOINHA,ALAGOINHA - PB,-6.95,-35.54,PB
2766,ALAGOINHA,ALAGOINHA - PE,-8.46,-36.77,PE
2948,ALAGOINHA DO PIAUI,ALAGOINHA DO PIAUI - PI,-7,-40.93,PI
208,ALAGOINHAS,ALAGOINHAS - BA,-12.13,-38.41,BA
4734,ALAMBARI,ALAMBARI - SP,-23.55,-47.89,SP
1351,ALBERTINA,ALBERTINA - MG,-22.2,-46.61,MG
1124,ALCANTARA,ALCANTARA - MA,-2.4,-44.41,MA
622,ALCANTARAS,ALCANTARAS - CE,-3.58,-40.54,CE
2542,ALCANTIL,ALCANTIL - PB,-7.74,-36.05,PB
2192,ALCINOPOLIS,ALCINOPOLIS - MS,-18.32,-53.7,MS
209,ALCOBACA,ALCOBACA - BA,-17.51,-39.19,BA
1125,ALDEIAS ALTAS,ALDEIAS ALTAS - MA,-4.62,-43.47,MA
3892,ALECRIM,ALECRIM - RS,-27.65,-54.76,RS
805,ALEGRE,ALEGRE - ES,-20.76,-41.53,ES
3893,ALEGRETE,ALEGRETE - RS,-29.78,-55.79,RS
2949,ALEGRETE DO PIAUI,ALEGRETE DO PIAUI - PI,-7.24,-40.85,PI
3894,ALEGRIA,ALEGRIA - RS,-27.82,-54.05,RS
1352,ALEM PARAIBA,ALEM PARAIBA - MG,-21.88,-42.7,MG
2399,ALENQUER,ALENQUER - PA,-1.94,-54.73,PA
3660,ALEXANDRIA,ALEXANDRIA - RN,-6.41,-38.01,RN
886,ALEXANIA,ALEXANIA - GO,-16.08,-48.5,GO
1353,ALFENAS,ALFENAS - MG,-21.42,-45.94,MG
806,ALFREDO CHAVES,ALFREDO CHAVES - ES,-20.63,-40.75,ES
4735,ALFREDO MARCONDES,ALFREDO MARCONDES - SP,-21.95,-51.41,SP
1354,ALFREDO VASCONCELOS,ALFREDO VASCONCELOS - MG,-21.14,-43.77,MG
4366,ALFREDO WAGNER,ALFREDO WAGNER - SC,-27.7,-49.33,SC
2543,ALGODAO DE JANDAIRA,ALGODAO DE JANDAIRA - PB,-6.81,-35.92,PB
2544,ALHANDRA,ALHANDRA - PB,-7.43,-34.91,PB
2767,ALIANCA,ALIANCA - PE,-7.6,-35.23,PE
5373,ALIANCA DO TOCANTINS,ALIANCA DO TOCANTINS - TO,-11.3,-48.93,TO
210,ALMADINA,ALMADINA - BA,-14.7,-39.63,BA
5374,ALMAS,ALMAS - TO,-11.57,-47.17,TO
2400,ALMEIRIM,ALMEIRIM - PA,-1.52,-52.58,PA
1355,ALMENARA,ALMENARA - MG,-16.18,-40.69,MG
3661,ALMINO AFONSO,ALMINO AFONSO - RN,-6.15,-37.76,RN
3169,ALMIRANTE TAMANDARE,ALMIRANTE TAMANDARE - PR,-25.32,-49.31,PR
887,ALOANDIA,ALOANDIA - GO,-17.72,-49.48,GO
1356,ALPERCATA,ALPERCATA - MG,-18.97,-41.97,MG
3895,ALPESTRE,ALPESTRE - RS,-27.24,-53.03,RS
1357,ALPINOPOLIS,ALPINOPOLIS - MG,-20.86,-46.38,MG
2270,ALTA FLORESTA,ALTA FLORESTA - MT,-9.87,-56.08,MT
3822,ALTA FLORESTA D'OESTE,ALTA FLORESTA D'OESTE - RO,-11.94,-61.9,RO
4736,ALTAIR,ALTAIR - SP,-20.52,-49.05,SP
2401,ALTAMIRA,ALTAMIRA - PA,-3.2,-52.2,PA
1126,ALTAMIRA DO MARANHAO,ALTAMIRA DO MARANHAO - MA,-4.16,-45.47,MA
3170,ALTAMIRA DO PARANA,ALTAMIRA DO PARANA - PR,-24.79,-52.71,PR
623,ALTANEIRA,ALTANEIRA - CE,-7,-39.74,CE
1358,ALTEROSA,ALTEROSA - MG,-21.24,-46.14,MG
2768,ALTINHO,ALTINHO - PE,-8.49,-36.05,PE
4737,ALTINOPOLIS,ALTINOPOLIS - SP,-21.02,-47.37,SP
3874,ALTO ALEGRE,ALTO ALEGRE - RR,2.89,-61.49,RR
3896,ALTO ALEGRE,ALTO ALEGRE - RS,-28.77,-52.99,RS
4738,ALTO ALEGRE,ALTO ALEGRE - SP,-21.58,-50.16,SP
1127,ALTO ALEGRE DO MARANHAO,ALTO ALEGRE DO MARANHAO - MA,-4.21,-44.44,MA
3823,ALTO ALEGRE DO PARECIS,ALTO ALEGRE DO PARECIS - RO,-12.12,-61.85,RO
1128,ALTO ALEGRE DO PINDARE,ALTO ALEGRE DO PINDARE - MA,-3.69,-45.9,MA
2271,ALTO ARAGUAIA,ALTO ARAGUAIA - MT,-17.31,-53.21,MT
4367,ALTO BELA VISTA,ALTO BELA VISTA - SC,-27.45,-51.87,SC
2272,ALTO BOA VISTA,ALTO BOA VISTA - MT,-11.67,-51.38,MT
1359,ALTO CAPARAO,ALTO CAPARAO - MG,-20.52,-41.89,MG
3662,ALTO DO RODRIGUES,ALTO DO RODRIGUES - RN,-5.28,-36.76,RN
3897,ALTO FELIZ,ALTO FELIZ - RS,-29.39,-51.31,RS
2273,ALTO GARCAS,ALTO GARCAS - MT,-16.94,-53.52,MT
888,ALTO HORIZONTE,ALTO HORIZONTE - GO,-14.19,-49.33,GO
1360,ALTO JEQUITIBA,ALTO JEQUITIBA - MG,-20.42,-41.96,MG
2950,ALTO LONGA,ALTO LONGA - PI,-5.25,-42.21,PI
2274,ALTO PARAGUAI,ALTO PARAGUAI - MT,-14.51,-56.48,MT
3824,ALTO PARAISO,ALTO PARAISO - RO,-9.71,-63.32,RO
889,ALTO PARAISO DE GOIAS,ALTO PARAISO DE GOIAS - GO,-14.13,-47.51,GO
3171,ALTO PARANA,ALTO PARANA - PR,-23.12,-52.31,PR
1129,ALTO PARNAIBA,ALTO PARNAIBA - MA,-9.11,-45.93,MA
3172,ALTO PIQUIRI,ALTO PIQUIRI - PR,-24.02,-53.44,PR
1361,ALTO RIO DOCE,ALTO RIO DOCE - MG,-21.02,-43.41,MG
807,ALTO RIO NOVO,ALTO RIO NOVO - ES,-19.05,-41.01,ES
624,ALTO SANTO,ALTO SANTO - CE,-5.52,-38.27,CE
2275,ALTO TAQUARI,ALTO TAQUARI - MT,-17.82,-53.28,MT
3173,ALTONIA,ALTONIA - PR,-23.87,-53.9,PR
2951,ALTOS,ALTOS - PI,-5.03,-42.46,PI
4739,ALUMINIO,ALUMINIO - SP,-23.53,-47.26,SP
124,ALVARAES,ALVARAES - AM,-3.22,-64.8,AM
1362,ALVARENGA,ALVARENGA - MG,-19.41,-41.72,MG
4740,ALVARES FLORENCE,ALVARES FLORENCE - SP,-20.32,-49.91,SP
4741,ALVARES MACHADO,ALVARES MACHADO - SP,-22.07,-51.47,SP
4742,ALVARO DE CARVALHO,ALVARO DE CARVALHO - SP,-22.08,-49.71,SP
4743,ALVINLANDIA,ALVINLANDIA - SP,-22.44,-49.76,SP
1363,ALVINOPOLIS,ALVINOPOLIS - MG,-20.1,-43.04,MG
3898,ALVORADA,ALVORADA - RS,-29.99,-51.08,RS
5375,ALVORADA,ALVORADA - TO,-12.48,-49.12,TO
1364,ALVORADA DE MINAS,ALVORADA DE MINAS - MG,-18.73,-43.36,MG
2952,ALVORADA DO GURGUEIA,ALVORADA DO GURGUEIA - PI,-8.42,-43.77,PI
890,ALVORADA DO NORTE,ALVORADA DO NORTE - GO,-14.48,-46.49,GO
3174,ALVORADA DO SUL,ALVORADA DO SUL - PR,-22.78,-51.23,PR
3825,ALVORADA D'OESTE,ALVORADA D'OESTE - RO,-11.4,-62.38,RO
3875,AMAJARI,AMAJARI - RR,3.65,-61.37,RR
2193,AMAMBAI,AMAMBAI - MS,-23.1,-55.22,MS
186,AMAPA,AMAPA - AP,2.05,-50.79,AP
1130,AMAPA DO MARANHAO,AMAPA DO MARANHAO - MA,-1.56,-45.93,MA
3175,AMAPORA,AMAPORA - PR,-23.09,-52.78,PR
2769,AMARAJI,AMARAJI - PE,-8.38,-35.45,PE
3899,AMARAL FERRADOR,AMARAL FERRADOR - RS,-30.87,-52.25,RS
891,AMARALINA,AMARALINA - GO,-13.92,-49.29,GO
2953,AMARANTE,AMARANTE - PI,-6.24,-42.85,PI
1131,AMARANTE DO MARANHAO,AMARANTE DO MARANHAO - MA,-5.56,-46.74,MA
211,AMARGOSA,AMARGOSA - BA,-13.03,-39.6,BA
125,AMATURA,AMATURA - AM,-3.36,-68.19,AM
212,AMELIA RODRIGUES,AMELIA RODRIGUES - BA,-12.39,-38.75,BA
213,AMERICA DOURADA,AMERICA DOURADA - BA,-11.45,-41.43,BA
4744,AMERICANA,AMERICANA - SP,-22.73,-47.33,SP
892,AMERICANO DO BRASIL,AMERICANO DO BRASIL - GO,-16.25,-49.98,GO
4745,AMERICO BRASILIENSE,AMERICO BRASILIENSE - SP,-21.72,-48.1,SP
4746,AMERICO DE CAMPOS,AMERICO DE CAMPOS - SP,-20.29,-49.73,SP
3900,AMETISTA DO SUL,AMETISTA DO SUL - RS,-27.36,-53.18,RS
625,AMONTADA,AMONTADA - CE,-3.49,-39.57,CE
893,AMORINOPOLIS,AMORINOPOLIS - GO,-16.61,-51.09,GO
2545,AMPARO,AMPARO - PB,-7.56,-37.06,PB
4747,AMPARO,AMPARO - SP,-22.7,-46.76,SP
4651,AMPARO DE SAO FRANCISCO,AMPARO DE SAO FRANCISCO - SE,-10.13,-36.93,SE
1365,AMPARO DO SERRA,AMPARO DO SERRA - MG,-20.5,-42.8,MG
3176,AMPERE,AMPERE - PR,-25.91,-53.47,PR
24,ANADIA,ANADIA - AL,-9.68,-36.3,AL
214,ANAGE,ANAGE - BA,-14.61,-41.13,BA
3177,ANAHY,ANAHY - PR,-24.71,-53.08,PR
2402,ANAJAS,ANAJAS - PA,-0.98,-49.94,PA
1132,ANAJATUBA,ANAJATUBA - MA,-3.26,-44.62,MA
4748,ANALANDIA,ANALANDIA - SP,-22.12,-47.66,SP
126,ANAMA,ANAMA - AM,-3.58,-61.4,AM
5376,ANANAS,ANANAS - TO,-6.36,-48.07,TO
2403,ANANINDEUA,ANANINDEUA - PA,-1.36,-48.37,PA
894,ANAPOLIS,ANAPOLIS - GO,-16.32,-48.95,GO
2404,ANAPU,ANAPU - PA,-3.47,-51.19,PA
1133,ANAPURUS,ANAPURUS - MA,-3.67,-43.11,MA
2194,ANASTACIO,ANASTACIO - MS,-20.48,-55.8,MS
2195,ANAURILANDIA,ANAURILANDIA - MS,-22.18,-52.71,MS
808,ANCHIETA,ANCHIETA - ES,-20.79,-40.65,ES
4368,ANCHIETA,ANCHIETA - SC,-26.53,-53.33,SC
215,ANDARAI,ANDARAI - BA,-12.8,-41.33,BA
3178,ANDIRA,ANDIRA - PR,-23.05,-50.22,PR
216,ANDORINHA,ANDORINHA - BA,-10.34,-39.83,BA
1366,ANDRADAS,ANDRADAS - MG,-22.06,-46.56,MG
4749,ANDRADINA,ANDRADINA - SP,-20.89,-51.37,SP
3901,ANDRE DA ROCHA,ANDRE DA ROCHA - RS,-28.63,-51.57,RS
1367,ANDRELANDIA,ANDRELANDIA - MG,-21.74,-44.3,MG
4750,ANGATUBA,ANGATUBA - SP,-23.49,-48.41,SP
1368,ANGELANDIA,ANGELANDIA - MG,-17.6,-42.16,MG
2196,ANGELICA,ANGELICA - MS,-22.15,-53.77,MS
2770,ANGELIM,ANGELIM - PE,-8.89,-36.28,PE
4369,ANGELINA,ANGELINA - SC,-27.56,-48.98,SC
217,ANGICAL,ANGICAL - BA,-12,-44.69,BA
2954,ANGICAL DO PIAUI,ANGICAL DO PIAUI - PI,-6.08,-42.73,PI
5377,ANGICO,ANGICO - TO,-6.39,-47.86,TO
3663,ANGICOS,ANGICOS - RN,-5.66,-36.6,RN
3565,ANGRA DOS REIS,ANGRA DOS REIS - RJ,-23,-44.31,RJ
218,ANGUERA,ANGUERA - BA,-12.15,-39.24,BA
3179,ANGULO,ANGULO - PR,-23.19,-51.91,PR
895,ANHANGUERA,ANHANGUERA - GO,-18.33,-48.21,GO
4751,ANHEMBI,ANHEMBI - SP,-22.78,-48.12,SP
4752,ANHUMAS,ANHUMAS - SP,-22.29,-51.38,SP
896,ANICUNS,ANICUNS - GO,-16.46,-49.96,GO
2955,ANISIO DE ABREU,ANISIO DE ABREU - PI,-9.18,-43.04,PI
4370,ANITA GARIBALDI,ANITA GARIBALDI - SC,-27.68,-51.13,SC
4371,ANITAPOLIS,ANITAPOLIS - SC,-27.9,-49.12,SC
127,ANORI,ANORI - AM,-3.77,-61.64,AM
3902,ANTA GORDA,ANTA GORDA - RS,-28.97,-52,RS
219,ANTAS,ANTAS - BA,-10.4,-38.33,BA
3180,ANTONINA,ANTONINA - PR,-25.42,-48.71,PR
626,ANTONINA DO NORTE,ANTONINA DO NORTE - CE,-6.77,-39.98,CE
2956,ANTONIO ALMEIDA,ANTONIO ALMEIDA - PI,-7.21,-44.19,PI
220,ANTONIO CARDOSO,ANTONIO CARDOSO - BA,-12.43,-39.12,BA
1369,ANTONIO CARLOS,ANTONIO CARLOS - MG,-21.31,-43.74,MG
4372,ANTONIO CARLOS,ANTONIO CARLOS - SC,-27.51,-48.76,SC
1370,ANTONIO DIAS,ANTONIO DIAS - MG,-19.65,-42.87,MG
221,ANTONIO GONCALVES,ANTONIO GONCALVES - BA,-10.57,-40.27,BA
2197,ANTONIO JOAO,ANTONIO JOAO - MS,-22.19,-55.94,MS
3664,ANTONIO MARTINS,ANTONIO MARTINS - RN,-6.21,-37.9,RN
3181,ANTONIO OLINTO,ANTONIO OLINTO - PR,-25.98,-50.19,PR
3903,ANTONIO PRADO,ANTONIO PRADO - RS,-28.85,-51.28,RS
1371,ANTONIO PRADO DE MINAS,ANTONIO PRADO DE MINAS - MG,-21.01,-42.1,MG
2546,APARECIDA,APARECIDA - PB,-6.78,-38.08,PB
4753,APARECIDA,APARECIDA - SP,-22.84,-45.23,SP
897,APARECIDA DE GOIANIA,APARECIDA DE GOIANIA - GO,-16.82,-49.24,GO
898,APARECIDA DO RIO DOCE,APARECIDA DO RIO DOCE - GO,-18.29,-51.14,GO
5378,APARECIDA DO RIO NEGRO,APARECIDA DO RIO NEGRO - TO,-9.95,-47.97,TO
2198,APARECIDA DO TABOADO,APARECIDA DO TABOADO - MS,-20.08,-51.09,MS
4754,APARECIDA D'OESTE,APARECIDA D'OESTE - SP,-20.44,-50.88,SP
3566,APERIBE,APERIBE - RJ,-21.62,-42.1,RJ
809,APIACA,APIACA - ES,-21.15,-41.56,ES
2276,APIACAS,APIACAS - MT,-9.54,-57.44,MT
4755,APIAI,APIAI - SP,-24.5,-48.84,SP
1134,APICUM-ACU,APICUM-ACU - MA,-1.46,-45.1,MA
4373,APIUNA,APIUNA - SC,-27.03,-49.39,SC
3665,APODI,APODI - RN,-5.66,-37.79,RN
222,APORA,APORA - BA,-11.66,-38.08,BA
899,APORE,APORE - GO,-18.96,-51.92,GO
223,APUAREMA,APUAREMA - BA,-13.85,-39.74,BA
3182,APUCARANA,APUCARANA - PR,-23.55,-51.46,PR
128,APUI,APUI - AM,-7.19,-59.89,AM
627,APUIARES,APUIARES - CE,-3.94,-39.43,CE
4652,AQUIDABA,AQUIDABA - SE,-10.28,-37.01,SE
2199,AQUIDAUANA,AQUIDAUANA - MS,-20.47,-55.78,MS
628,AQUIRAZ,AQUIRAZ - CE,-3.9,-38.39,CE
4374,ARABUTA,ARABUTA - SC,-27.16,-52.14,SC
2547,ARACAGI,ARACAGI - PB,-6.85,-35.38,PB
1372,ARACAI,ARACAI - MG,-19.19,-44.24,MG
4653,ARACAJU,ARACAJU - SE,-10.91,-37.07,SE
4756,ARACARIGUAMA,ARACARIGUAMA - SP,-23.43,-47.06,SP
224,ARACAS,ARACAS - BA,-12.22,-38.2,BA
629,ARACATI,ARACATI - CE,-4.56,-37.77,CE
225,ARACATU,ARACATU - BA,-14.42,-41.46,BA
4757,ARACATUBA,ARACATUBA - SP,-21.2,-50.43,SP
226,ARACI,ARACI - BA,-11.33,-38.96,BA
1373,ARACITABA,ARACITABA - MG,-21.34,-43.37,MG
630,ARACOIABA,ARACOIABA - CE,-4.37,-38.81,CE
2771,ARACOIABA,ARACOIABA - PE,-7.79,-35.09,PE
4758,ARACOIABA DA SERRA,ARACOIABA DA SERRA - SP,-23.5,-47.61,SP
810,ARACRUZ,ARACRUZ - ES,-19.82,-40.27,ES
900,ARACU,ARACU - GO,-16.35,-49.68,GO
1374,ARACUAI,ARACUAI - MG,-16.85,-42.07,MG
901,ARAGARCAS,ARAGARCAS - GO,-15.89,-52.25,GO
902,ARAGOIANIA,ARAGOIANIA - GO,-16.91,-49.45,GO
5379,ARAGOMINAS,ARAGOMINAS - TO,-7.16,-48.52,TO
5380,ARAGUACEMA,ARAGUACEMA - TO,-8.8,-49.55,TO
5381,ARAGUACU,ARAGUACU - TO,-12.93,-49.82,TO
2277,ARAGUAIANA,ARAGUAIANA - MT,-15.73,-51.83,MT
5382,ARAGUAINA,ARAGUAINA - TO,-7.19,-48.2,TO
2278,ARAGUAINHA,ARAGUAINHA - MT,-16.85,-53.03,MT
1135,ARAGUANA,ARAGUANA - MA,-2.95,-45.66,MA
5383,ARAGUANA,ARAGUANA - TO,-6.58,-48.64,TO
903,ARAGUAPAZ,ARAGUAPAZ - GO,-15.09,-50.63,GO
1375,ARAGUARI,ARAGUARI - MG,-18.64,-48.18,MG
5384,ARAGUATINS,ARAGUATINS - TO,-5.65,-48.12,TO
1136,ARAIOSES,ARAIOSES - MA,-2.89,-41.9,MA
2200,ARAL MOREIRA,ARAL MOREIRA - MS,-22.93,-55.63,MS
227,ARAMARI,ARAMARI - BA,-12.08,-38.49,BA
3904,ARAMBARE,ARAMBARE - RS,-30.91,-51.49,RS
1137,ARAME,ARAME - MA,-4.73,-45.9,MA
4759,ARAMINA,ARAMINA - SP,-20.09,-47.78,SP
4760,ARANDU,ARANDU - SP,-23.13,-49.05,SP
1376,ARANTINA,ARANTINA - MG,-21.91,-44.25,MG
4761,ARAPEI,ARAPEI - SP,-22.67,-44.44,SP
25,ARAPIRACA,ARAPIRACA - AL,-9.75,-36.66,AL
5385,ARAPOEMA,ARAPOEMA - TO,-7.65,-49.06,TO
1377,ARAPONGA,ARAPONGA - MG,-20.66,-42.52,MG
3183,ARAPONGAS,ARAPONGAS - PR,-23.41,-51.42,PR
1378,ARAPORA,ARAPORA - MG,-18.43,-49.18,MG
3184,ARAPOTI,ARAPOTI - PR,-24.15,-49.82,PR
1379,ARAPUA,ARAPUA - MG,-19.03,-46.15,MG
3185,ARAPUA,ARAPUA - PR,-24.31,-51.78,PR
2279,ARAPUTANGA,ARAPUTANGA - MT,-15.47,-58.35,MT
4375,ARAQUARI,ARAQUARI - SC,-26.37,-48.72,SC
2548,ARARA,ARARA - PB,-6.82,-35.75,PB
4376,ARARANGUA,ARARANGUA - SC,-28.93,-49.48,SC
4762,ARARAQUARA,ARARAQUARA - SP,-21.79,-48.17,SP
4763,ARARAS,ARARAS - SP,-22.35,-47.38,SP
631,ARARENDA,ARARENDA - CE,-4.75,-40.83,CE
1138,ARARI,ARARI - MA,-3.45,-44.78,MA
3905,ARARICA,ARARICA - RS,-29.61,-50.92,RS
632,ARARIPE,ARARIPE - CE,-7.21,-40.04,CE
2772,ARARIPINA,ARARIPINA - PE,-7.57,-40.49,PE
3567,ARARUAMA,ARARUAMA - RJ,-22.87,-42.34,RJ
2549,ARARUNA,ARARUNA - PB,-6.55,-35.74,PB
3186,ARARUNA,ARARUNA - PR,-23.93,-52.49,PR
228,ARATACA,ARATACA - BA,-15.26,-39.41,BA
3906,ARATIBA,ARATIBA - RS,-27.39,-52.3,RS
633,ARATUBA,ARATUBA - CE,-4.41,-39.04,CE
229,ARATUIPE,ARATUIPE - BA,-13.07,-39,BA
4654,ARAUA,ARAUA - SE,-11.26,-37.62,SE
3187,ARAUCARIA,ARAUCARIA - PR,-25.59,-49.41,PR
1380,ARAUJOS,ARAUJOS - MG,-19.94,-45.16,MG
1381,ARAXA,ARAXA - MG,-19.59,-46.94,MG
1382,ARCEBURGO,ARCEBURGO - MG,-21.36,-46.94,MG
4764,ARCO-IRIS,ARCO-IRIS - SP,-21.77,-50.46,SP
1383,ARCOS,ARCOS - MG,-20.28,-45.53,MG
2773,ARCOVERDE,ARCOVERDE - PE,-8.41,-37.05,PE
1384,AREADO,AREADO - MG,-21.35,-46.14,MG
3568,AREAL,AREAL - RJ,-22.23,-43.1,RJ
4765,AREALVA,AREALVA - SP,-22.02,-48.91,SP
2550,AREIA,AREIA - PB,-6.96,-35.69,PB
3666,AREIA BRANCA,AREIA BRANCA - RN,-4.95,-37.13,RN
4655,AREIA BRANCA,AREIA BRANCA - SE,-10.75,-37.31,SE
2551,AREIA DE BARAUNAS,AREIA DE BARAUNAS - PB,-7.12,-36.94,PB
2552,AREIAL,AREIAL - PB,-7.02,-35.9,PB
4766,AREIAS,AREIAS - SP,-22.58,-44.69,SP
4767,AREIOPOLIS,AREIOPOLIS - SP,-22.66,-48.66,SP
2280,ARENAPOLIS,ARENAPOLIS - MT,-14.45,-56.84,MT
904,ARENOPOLIS,ARENOPOLIS - GO,-16.38,-51.56,GO
3667,ARES,ARES - RN,-6.19,-35.16,RN
1385,ARGIRITA,ARGIRITA - MG,-21.61,-42.83,MG
1386,ARICANDUVA,ARICANDUVA - MG,-17.86,-42.55,MG
1387,ARINOS,ARINOS - MG,-15.91,-46.1,MG
2281,ARIPUANA,ARIPUANA - MT,-10.16,-59.45,MT
3826,ARIQUEMES,ARIQUEMES - RO,-9.91,-63.04,RO
4768,ARIRANHA,ARIRANHA - SP,-21.18,-48.78,SP
3188,ARIRANHA DO IVAI,ARIRANHA DO IVAI - PR,-24.38,-51.58,PR
3569,ARMACAO DE BUZIOS,ARMACAO DE BUZIOS - RJ,-22.74,-41.88,RJ
4377,ARMAZEM,ARMAZEM - SC,-28.26,-49.01,SC
634,ARNEIROZ,ARNEIROZ - CE,-6.32,-40.16,CE
2957,AROAZES,AROAZES - PI,-6.11,-41.79,PI
2553,AROEIRAS,AROEIRAS - PB,-7.54,-35.7,PB
2958,ARRAIAL,ARRAIAL - PI,-6.65,-42.53,PI
3570,ARRAIAL DO CABO,ARRAIAL DO CABO - RJ,-22.96,-42.02,RJ
5386,ARRAIAS,ARRAIAS - TO,-12.93,-46.93,TO
3907,ARROIO DO MEIO,ARROIO DO MEIO - RS,-29.4,-51.94,RS
3908,ARROIO DO SAL,ARROIO DO SAL - RS,-29.55,-49.88,RS
3909,ARROIO DO TIGRE,ARROIO DO TIGRE - RS,-29.33,-53.09,RS
3910,ARROIO DOS RATOS,ARROIO DOS RATOS - RS,-30.07,-51.72,RS
3911,ARROIO GRANDE,ARROIO GRANDE - RS,-32.23,-53.08,RS
4378,ARROIO TRINTA,ARROIO TRINTA - SC,-26.93,-51.33,SC
4769,ARTUR NOGUEIRA,ARTUR NOGUEIRA - SP,-22.57,-47.17,SP
905,ARUANA,ARUANA - GO,-14.92,-51.08,GO
4770,ARUJA,ARUJA - SP,-23.39,-46.32,SP
4379,ARVOREDO,ARVOREDO - SC,-27.07,-52.45,SC
3912,ARVOREZINHA,ARVOREZINHA - RS,-28.87,-52.17,RS
4380,ASCURRA,ASCURRA - SC,-26.95,-49.37,SC
4771,ASPASIA,ASPASIA - SP,-20.15,-50.72,SP
3189,ASSAI,ASSAI - PR,-23.37,-50.84,PR
635,ASSARE,ASSARE - CE,-6.87,-39.87,CE
4772,ASSIS,ASSIS - SP,-22.66,-50.41,SP
2,ASSIS BRASIL,ASSIS BRASIL - AC,-10.94,-69.56,AC
3190,ASSIS CHATEAUBRIAND,ASSIS CHATEAUBRIAND - PR,-24.42,-53.52,PR
2554,ASSUNCAO,ASSUNCAO - PB,-7.07,-36.73,PB
2959,ASSUNCAO DO PIAUI,ASSUNCAO DO PIAUI - PI,-5.86,-41.03,PI
1388,ASTOLFO DUTRA,ASTOLFO DUTRA - MG,-21.31,-42.86,MG
3191,ASTORGA,ASTORGA - PR,-23.23,-51.66,PR
26,ATALAIA,ATALAIA - AL,-9.5,-36.02,AL
3192,ATALAIA,ATALAIA - PR,-23.15,-52.05,PR
129,ATALAIA DO NORTE,ATALAIA DO NORTE - AM,-4.37,-70.19,AM
4381,ATALANTA,ATALANTA - SC,-27.42,-49.78,SC
1389,ATALEIA,ATALEIA - MG,-18.04,-41.11,MG
4773,ATIBAIA,ATIBAIA - SP,-23.11,-46.55,SP
811,ATILIO VIVACQUA,ATILIO VIVACQUA - ES,-20.91,-41.19,ES
5387,AUGUSTINOPOLIS,AUGUSTINOPOLIS - TO,-5.46,-47.88,TO
2405,AUGUSTO CORREA,AUGUSTO CORREA - PA,-1.02,-46.64,PA
1390,AUGUSTO DE LIMA,AUGUSTO DE LIMA - MG,-18.1,-44.26,MG
3913,AUGUSTO PESTANA,AUGUSTO PESTANA - RS,-28.51,-53.99,RS
3668,AUGUSTO SEVERO,AUGUSTO SEVERO - RN,-5.86,-37.31,RN
3914,AUREA,AUREA - RS,-27.69,-52.04,RS
230,AURELINO LEAL,AURELINO LEAL - BA,-14.31,-39.32,BA
4774,AURIFLAMA,AURIFLAMA - SP,-20.68,-50.55,SP
906,AURILANDIA,AURILANDIA - GO,-16.68,-50.46,GO
636,AURORA,AURORA - CE,-6.94,-38.96,CE
4382,AURORA,AURORA - SC,-27.31,-49.63,SC
2406,AURORA DO PARA,AURORA DO PARA - PA,-2.13,-47.56,PA
5388,AURORA DO TOCANTINS,AURORA DO TOCANTINS - TO,-12.71,-46.4,TO
130,AUTAZES,AUTAZES - AM,-3.58,-59.13,AM
4775,AVAI,AVAI - SP,-22.14,-49.33,SP
4776,AVANHANDAVA,AVANHANDAVA - SP,-21.46,-49.95,SP
4777,AVARE,AVARE - SP,-23.09,-48.92,SP
2407,AVEIRO,AVEIRO - PA,-3.6,-55.33,PA
2960,AVELINO LOPES,AVELINO LOPES - PI,-10.13,-43.94,PI
907,AVELINOPOLIS,AVELINOPOLIS - GO,-16.46,-49.75,GO
1139,AXIXA,AXIXA - MA,-2.83,-44.05,MA
5389,AXIXA DO TOCANTINS,AXIXA DO TOCANTINS - TO,-5.61,-47.76,TO
5390,BABACULANDIA,BABACULANDIA - TO,-7.2,-47.75,TO
1140,BACABAL,BACABAL - MA,-4.22,-44.78,MA
1141,BACABEIRA,BACABEIRA - MA,-2.97,-44.31,MA
1142,BACURI,BACURI - MA,-1.7,-45.13,MA
1143,BACURITUBA,BACURITUBA - MA,-2.7,-44.73,MA
4778,BADY BASSITT,BADY BASSITT - SP,-20.91,-49.44,SP
1391,BAEPENDI,BAEPENDI - MG,-21.95,-44.89,MG
3915,BAGE,BAGE - RS,-31.33,-54.1,RS
2408,BAGRE,BAGRE - PA,-1.9,-50.16,PA
2555,BAIA DA TRAICAO,BAIA DA TRAICAO - PB,-6.68,-34.93,PB
3669,BAIA FORMOSA,BAIA FORMOSA - RN,-6.36,-35,RN
231,BAIANOPOLIS,BAIANOPOLIS - BA,-12.3,-44.53,BA
2409,BAIAO,BAIAO - PA,-2.79,-49.67,PA
232,BAIXA GRANDE,BAIXA GRANDE - BA,-11.96,-40.16,BA
2961,BAIXA GRANDE DO RIBEIRO,BAIXA GRANDE DO RIBEIRO - PI,-7.85,-45.21,PI
637,BAIXIO,BAIXIO - CE,-6.73,-38.71,CE
812,BAIXO GUANDU,BAIXO GUANDU - ES,-19.51,-41.01,ES
4779,BALBINOS,BALBINOS - SP,-21.9,-49.35,SP
1392,BALDIM,BALDIM - MG,-19.28,-43.95,MG
908,BALIZA,BALIZA - GO,-16.19,-52.54,GO
4383,BALNEARIO ARROIO DO SILVA,BALNEARIO ARROIO DO SILVA - SC,-28.98,-49.41,SC
4384,BALNEARIO BARRA DO SUL,BALNEARIO BARRA DO SUL - SC,-26.45,-48.61,SC
4385,BALNEARIO CAMBORIU,BALNEARIO CAMBORIU - SC,-26.99,-48.63,SC
4386,BALNEARIO GAIVOTA,BALNEARIO GAIVOTA - SC,-29.15,-49.57,SC
3916,BALNEARIO PINHAL,BALNEARIO PINHAL - RS,-30.24,-50.23,RS
3193,BALSA NOVA,BALSA NOVA - PR,-25.58,-49.63,PR
4780,BALSAMO,BALSAMO - SP,-20.73,-49.58,SP
1144,BALSAS,BALSAS - MA,-7.53,-46.03,MA
1393,BAMBUI,BAMBUI - MG,-20,-45.97,MG
638,BANABUIU,BANABUIU - CE,-5.31,-38.92,CE
4781,BANANAL,BANANAL - SP,-22.68,-44.32,SP
2556,BANANEIRAS,BANANEIRAS - PB,-6.75,-35.63,PB
1394,BANDEIRA,BANDEIRA - MG,-15.88,-40.55,MG
1395,BANDEIRA DO SUL,BANDEIRA DO SUL - MG,-21.72,-46.38,MG
4387,BANDEIRANTE,BANDEIRANTE - SC,-26.76,-53.63,SC
2201,BANDEIRANTES,BANDEIRANTES - MS,-19.91,-54.36,MS
3194,BANDEIRANTES,BANDEIRANTES - PR,-23.11,-50.36,PR
5391,BANDEIRANTES DO TOCANTINS,BANDEIRANTES DO TOCANTINS - TO,-7.75,-48.58,TO
2410,BANNACH,BANNACH - PA,-7.34,-50.39,PA
233,BANZAE,BANZAE - BA,-10.57,-38.61,BA
3917,BARAO,BARAO - RS,-29.37,-51.49,RS
4782,BARAO DE ANTONINA,BARAO DE ANTONINA - SP,-23.62,-49.56,SP
1396,BARAO DE COCAIS,BARAO DE COCAIS - MG,-19.94,-43.48,MG
3918,BARAO DE COTEGIPE,BARAO DE COTEGIPE - RS,-27.62,-52.38,RS
1145,BARAO DE GRAJAU,BARAO DE GRAJAU - MA,-6.75,-43.02,MA
2282,BARAO DE MELGACO,BARAO DE MELGACO - MT,-16.27,-55.95,MT
1397,BARAO DE MONTE ALTO,BARAO DE MONTE ALTO - MG,-21.24,-42.23,MG
3919,BARAO DO TRIUNFO,BARAO DO TRIUNFO - RS,-30.38,-51.73,RS
2557,BARAUNA,BARAUNA - PB,-6.64,-36.25,PB
3670,BARAUNA,BARAUNA - RN,-5.08,-37.61,RN
1398,BARBACENA,BARBACENA - MG,-21.22,-43.77,MG
639,BARBALHA,BARBALHA - CE,-7.3,-39.3,CE
4783,BARBOSA,BARBOSA - SP,-21.26,-49.94,SP
3195,BARBOSA FERRAZ,BARBOSA FERRAZ - PR,-24.03,-52.01,PR
2411,BARCARENA,BARCARENA - PA,-1.5,-48.62,PA
3671,BARCELONA,BARCELONA - RN,-5.95,-35.92,RN
131,BARCELOS,BARCELOS - AM,-0.97,-62.92,AM
4784,BARIRI,BARIRI - SP,-22.07,-48.74,SP
234,BARRA,BARRA - BA,-11.08,-43.14,BA
4388,BARRA BONITA,BARRA BONITA - SC,-26.65,-53.44,SC
4785,BARRA BONITA,BARRA BONITA - SP,-22.49,-48.55,SP
235,BARRA DA ESTIVA,BARRA DA ESTIVA - BA,-13.62,-41.32,BA
2962,BARRA D'ALCANTARA,BARRA D'ALCANTARA - PI,-6.51,-42.11,PI
2774,BARRA DE GUABIRABA,BARRA DE GUABIRABA - PE,-8.42,-35.65,PE
2558,BARRA DE SANTA ROSA,BARRA DE SANTA ROSA - PB,-6.72,-36.06,PB
2559,BARRA DE SANTANA,BARRA DE SANTANA - PB,-7.52,-36,PB
27,BARRA DE SANTO ANTONIO,BARRA DE SANTO ANTONIO - AL,-9.4,-35.5,AL
813,BARRA DE SAO FRANCISCO,BARRA DE SAO FRANCISCO - ES,-18.75,-40.89,ES
28,BARRA DE SAO MIGUEL,BARRA DE SAO MIGUEL - AL,-9.84,-35.9,AL
2560,BARRA DE SAO MIGUEL,BARRA DE SAO MIGUEL - PB,-7.75,-36.31,PB
2283,BARRA DO BUGRES,BARRA DO BUGRES - MT,-15.07,-57.18,MT
4786,BARRA DO CHAPEU,BARRA DO CHAPEU - SP,-24.47,-49.02,SP
236,BARRA DO CHOCA,BARRA DO CHOCA - BA,-14.88,-40.57,BA
1146,BARRA DO CORDA,BARRA DO CORDA - MA,-5.5,-45.24,MA
2284,BARRA DO GARCAS,BARRA DO GARCAS - MT,-15.89,-52.25,MT
3920,BARRA DO GUARITA,BARRA DO GUARITA - RS,-27.19,-53.71,RS
3196,BARRA DO JACARE,BARRA DO JACARE - PR,-23.11,-50.18,PR
237,BARRA DO MENDES,BARRA DO MENDES - BA,-11.81,-42.05,BA
5392,BARRA DO OURO,BARRA DO OURO - TO,-7.68,-47.68,TO
3571,BARRA DO PIRAI,BARRA DO PIRAI - RJ,-22.47,-43.82,RJ
3921,BARRA DO QUARAI,BARRA DO QUARAI - RS,-30.2,-57.55,RS
3922,BARRA DO RIBEIRO,BARRA DO RIBEIRO - RS,-30.29,-51.3,RS
3923,BARRA DO RIO AZUL,BARRA DO RIO AZUL - RS,-27.4,-52.41,RS
238,BARRA DO ROCHA,BARRA DO ROCHA - BA,-14.21,-39.6,BA
4787,BARRA DO TURVO,BARRA DO TURVO - SP,-24.75,-48.5,SP
4656,BARRA DOS COQUEIROS,BARRA DOS COQUEIROS - SE,-10.9,-37.03,SE
3924,BARRA FUNDA,BARRA FUNDA - RS,-27.92,-53.03,RS
1399,BARRA LONGA,BARRA LONGA - MG,-20.28,-43.04,MG
3572,BARRA MANSA,BARRA MANSA - RJ,-22.54,-44.17,RJ
4389,BARRA VELHA,BARRA VELHA - SC,-26.63,-48.68,SC
3197,BARRACAO,BARRACAO - PR,-26.25,-53.63,PR
3925,BARRACAO,BARRACAO - RS,-27.67,-51.46,RS
2963,BARRAS,BARRAS - PI,-4.24,-42.29,PI
640,BARREIRA,BARREIRA - CE,-4.28,-38.64,CE
239,BARREIRAS,BARREIRAS - BA,-12.15,-44.99,BA
2964,BARREIRAS DO PIAUI,BARREIRAS DO PIAUI - PI,-9.92,-45.47,PI
132,BARREIRINHA,BARREIRINHA - AM,-2.79,-57.07,AM
1147,BARREIRINHAS,BARREIRINHAS - MA,-2.74,-42.82,MA
2775,BARREIROS,BARREIROS - PE,-8.81,-35.18,PE
4788,BARRETOS,BARRETOS - SP,-20.55,-48.56,SP
4789,BARRINHA,BARRINHA - SP,-21.19,-48.16,SP
641,BARRO,BARRO - CE,-7.17,-38.78,CE
240,BARRO ALTO,BARRO ALTO - BA,-11.76,-41.91,BA
909,BARRO ALTO,BARRO ALTO - GO,-14.97,-48.91,GO
2965,BARRO DURO,BARRO DURO - PI,-5.81,-42.51,PI
241,BARRO PRETO,BARRO PRETO - BA,-14.81,-39.47,BA
5393,BARROLANDIA,BARROLANDIA - TO,-9.83,-48.72,TO
642,BARROQUINHA,BARROQUINHA - CE,-3.01,-41.13,CE
3926,BARROS CASSAL,BARROS CASSAL - RS,-29.09,-52.58,RS
1400,BARROSO,BARROSO - MG,-21.18,-43.97,MG
4790,BARUERI,BARUERI - SP,-23.51,-46.87,SP
4791,BASTOS,BASTOS - SP,-21.92,-50.73,SP
2202,BATAGUASSU,BATAGUASSU - MS,-21.71,-52.42,MS
2203,BATAIPORA,BATAIPORA - MS,-22.29,-53.27,MS
29,BATALHA,BATALHA - AL,-9.67,-37.12,AL
2966,BATALHA,BATALHA - PI,-4.02,-42.07,PI
4792,BATATAIS,BATATAIS - SP,-20.89,-47.58,SP
643,BATURITE,BATURITE - CE,-4.32,-38.88,CE
4793,BAURU,BAURU - SP,-22.31,-49.06,SP
2561,BAYEUX,BAYEUX - PB,-7.12,-34.93,PB
4794,BEBEDOURO,BEBEDOURO - SP,-20.94,-48.47,SP
644,BEBERIBE,BEBERIBE - CE,-4.18,-38.13,CE
645,BELA CRUZ,BELA CRUZ - CE,-3.05,-40.16,CE
2204,BELA VISTA,BELA VISTA - MS,-22.1,-56.52,MS
3198,BELA VISTA DA CAROBA,BELA VISTA DA CAROBA - PR,-25.88,-53.66,PR
910,BELA VISTA DE GOIAS,BELA VISTA DE GOIAS - GO,-16.97,-48.95,GO
1401,BELA VISTA DE MINAS,BELA VISTA DE MINAS - MG,-19.83,-43.09,MG
1148,BELA VISTA DO MARANHAO,BELA VISTA DO MARANHAO - MA,-3.73,-45.31,MA
3199,BELA VISTA DO PARAISO,BELA VISTA DO PARAISO - PR,-22.99,-51.19,PR
2967,BELA VISTA DO PIAUI,BELA VISTA DO PIAUI - PI,-7.98,-41.86,PI
4390,BELA VISTA DO TOLDO,BELA VISTA DO TOLDO - SC,-26.27,-50.46,SC
1149,BELAGUA,BELAGUA - MA,-3.15,-43.51,MA
30,BELEM,BELEM - AL,-9.57,-36.49,AL
2412,BELEM,BELEM - PA,-1.45,-48.5,PA
2562,BELEM,BELEM - PB,-6.74,-35.51,PB
2776,BELEM DE MARIA,BELEM DE MARIA - PE,-8.61,-35.8,PE
2777,BELEM DE SAO FRANCISCO,BELEM DE SAO FRANCISCO - PE,-8.75,-38.96,PE
2563,BELEM DO BREJO DO CRUZ,BELEM DO BREJO DO CRUZ - PB,-6.18,-37.53,PB
2968,BELEM DO PIAUI,BELEM DO PIAUI - PI,-7.37,-40.97,PI
3573,BELFORD ROXO,BELFORD ROXO - RJ,-22.76,-43.39,RJ
1402,BELMIRO BRAGA,BELMIRO BRAGA - MG,-21.94,-43.41,MG
242,BELMONTE,BELMONTE - BA,-15.86,-38.88,BA
4391,BELMONTE,BELMONTE - SC,-26.84,-53.57,SC
243,BELO CAMPO,BELO CAMPO - BA,-15.03,-41.26,BA
1403,BELO HORIZONTE,BELO HORIZONTE - MG,-19.81,-43.95,MG
2778,BELO JARDIM,BELO JARDIM - PE,-8.33,-36.42,PE
31,BELO MONTE,BELO MONTE - AL,-9.82,-37.28,AL
1404,BELO ORIENTE,BELO ORIENTE - MG,-19.22,-42.48,MG
1405,BELO VALE,BELO VALE - MG,-20.4,-44.02,MG
2413,BELTERRA,BELTERRA - PA,-2.63,-54.93,PA
2969,BENEDITINOS,BENEDITINOS - PI,-5.45,-42.36,PI
1150,BENEDITO LEITE,BENEDITO LEITE - MA,-7.22,-44.55,MA
4392,BENEDITO NOVO,BENEDITO NOVO - SC,-26.78,-49.36,SC
2414,BENEVIDES,BENEVIDES - PA,-1.36,-48.24,PA
133,BENJAMIN CONSTANT,BENJAMIN CONSTANT - AM,-4.38,-70.03,AM
3927,BENJAMIN CONSTANT DO SUL,BENJAMIN CONSTANT DO SUL - RS,-27.51,-52.59,RS
4795,BENTO DE ABREU,BENTO DE ABREU - SP,-21.27,-50.81,SP
3672,BENTO FERNANDES,BENTO FERNANDES - RN,-5.69,-35.82,RN
3928,BENTO GONCALVES,BENTO GONCALVES - RS,-29.17,-51.51,RS
1151,BEQUIMAO,BEQUIMAO - MA,-2.44,-44.78,MA
1406,BERILO,BERILO - MG,-16.95,-42.46,MG
1407,BERIZAL,BERIZAL - MG,-15.61,-41.74,MG
2564,BERNARDINO BATISTA,BERNARDINO BATISTA - PB,-6.45,-38.55,PB
4796,BERNARDINO DE CAMPOS,BERNARDINO DE CAMPOS - SP,-23.01,-49.47,SP
1152,BERNARDO DO MEARIM,BERNARDO DO MEARIM - MA,-4.58,-44.76,MA
5394,BERNARDO SAYAO,BERNARDO SAYAO - TO,-7.87,-48.88,TO
4797,BERTIOGA,BERTIOGA - SP,-23.85,-46.13,SP
2970,BERTOLINIA,BERTOLINIA - PI,-7.64,-43.95,PI
1408,BERTOPOLIS,BERTOPOLIS - MG,-17.06,-40.57,MG
134,BERURI,BERURI - AM,-3.89,-61.37,AM
2779,BETANIA,BETANIA - PE,-8.27,-38.03,PE
2971,BETANIA DO PIAUI,BETANIA DO PIAUI - PI,-8.14,-40.79,PI
1409,BETIM,BETIM - MG,-19.96,-44.19,MG
2780,BEZERROS,BEZERROS - PE,-8.23,-35.79,PE
1410,BIAS FORTES,BIAS FORTES - MG,-21.6,-43.75,MG
1411,BICAS,BICAS - MG,-21.72,-43.05,MG
4393,BIGUACU,BIGUACU - SC,-27.49,-48.65,SC
4798,BILAC,BILAC - SP,-21.4,-50.47,SP
1412,BIQUINHAS,BIQUINHAS - MG,-18.78,-45.5,MG
4799,BIRIGUI,BIRIGUI - SP,-21.28,-50.34,SP
4800,BIRITIBA-MIRIM,BIRITIBA-MIRIM - SP,-23.57,-46.03,SP
244,BIRITINGA,BIRITINGA - BA,-11.61,-38.8,BA
3200,BITURUNA,BITURUNA - PR,-26.16,-51.55,PR
4394,BLUMENAU,BLUMENAU - SC,-26.91,-49.06,SC
814,BOA ESPERANCA,BOA ESPERANCA - ES,-18.54,-40.29,ES
1413,BOA ESPERANCA,BOA ESPERANCA - MG,-21.09,-45.56,MG
3201,BOA ESPERANCA,BOA ESPERANCA - PR,-24.24,-52.78,PR
3202,BOA ESPERANCA DO IGUACU,BOA ESPERANCA DO IGUACU - PR,-25.63,-53.21,PR
4801,BOA ESPERANCA DO SUL,BOA ESPERANCA DO SUL - SP,-21.99,-48.39,SP
2972,BOA HORA,BOA HORA - PI,-4.41,-42.08,PI
245,BOA NOVA,BOA NOVA - BA,-14.36,-40.2,BA
2565,BOA VENTURA,BOA VENTURA - PB,-7.41,-38.21,PB
3203,BOA VENTURA DE SAO ROQUE,BOA VENTURA DE SAO ROQUE - PR,-24.86,-51.62,PR
646,BOA VIAGEM,BOA VIAGEM - CE,-5.12,-39.73,CE
2566,BOA VISTA,BOA VISTA - PB,-7.25,-36.24,PB
3876,BOA VISTA,BOA VISTA - RR,2.82,-60.67,RR
3204,BOA VISTA DA APARECIDA,BOA VISTA DA APARECIDA - PR,-25.43,-53.4,PR
3929,BOA VISTA DAS MISSOES,BOA VISTA DAS MISSOES - RS,-27.66,-53.31,RS
3930,BOA VISTA DO BURICA,BOA VISTA DO BURICA - RS,-27.66,-54.11,RS
1153,BOA VISTA DO GURUPI,BOA VISTA DO GURUPI - MA,-1.78,-46.3,MA
135,BOA VISTA DO RAMOS,BOA VISTA DO RAMOS - AM,-2.97,-57.59,AM
3931,BOA VISTA DO SUL,BOA VISTA DO SUL - RS,-29.35,-51.67,RS
246,BOA VISTA DO TUPIM,BOA VISTA DO TUPIM - BA,-12.66,-40.6,BA
32,BOCA DA MATA,BOCA DA MATA - AL,-9.64,-36.22,AL
136,BOCA DO ACRE,BOCA DO ACRE - AM,-8.75,-67.39,AM
2973,BOCAINA,BOCAINA - PI,-6.94,-41.32,PI
4802,BOCAINA,BOCAINA - SP,-22.13,-48.51,SP
1414,BOCAINA DE MINAS,BOCAINA DE MINAS - MG,-22.16,-44.39,MG
4395,BOCAINA DO SUL,BOCAINA DO SUL - SC,-27.74,-49.94,SC
1415,BOCAIUVA,BOCAIUVA - MG,-17.1,-43.81,MG
3205,BOCAIUVA DO SUL,BOCAIUVA DO SUL - PR,-25.2,-49.11,PR
3673,BODO,BODO - RN,-5.98,-36.41,RN
2781,BODOCO,BODOCO - PE,-7.77,-39.94,PE
2205,BODOQUENA,BODOQUENA - MS,-20.53,-56.71,MS
4803,BOFETE,BOFETE - SP,-23.1,-48.25,SP
4804,BOITUVA,BOITUVA - SP,-23.28,-47.67,SP
2782,BOM CONSELHO,BOM CONSELHO - PE,-9.17,-36.68,PE
1416,BOM DESPACHO,BOM DESPACHO - MG,-19.73,-45.25,MG
1154,BOM JARDIM,BOM JARDIM - MA,-3.56,-45.99,MA
2783,BOM JARDIM,BOM JARDIM - PE,-7.79,-35.58,PE
3574,BOM JARDIM,BOM JARDIM - RJ,-22.15,-42.41,RJ
4396,BOM JARDIM DA SERRA,BOM JARDIM DA SERRA - SC,-28.33,-49.62,SC
911,BOM JARDIM DE GOIAS,BOM JARDIM DE GOIAS - GO,-16.21,-52.17,GO
1417,BOM JARDIM DE MINAS,BOM JARDIM DE MINAS - MG,-21.94,-44.19,MG
2567,BOM JESUS,BOM JESUS - PB,-6.81,-38.65,PB
2974,BOM JESUS,BOM JESUS - PI,-9.07,-44.35,PI
3674,BOM JESUS,BOM JESUS - RN,-5.98,-35.58,RN
3932,BOM JESUS,BOM JESUS - RS,-28.66,-50.41,RS
4397,BOM JESUS,BOM JESUS - SC,-26.73,-52.39,SC
247,BOM JESUS DA LAPA,BOM JESUS DA LAPA - BA,-13.25,-43.41,BA
1418,BOM JESUS DA PENHA,BOM JESUS DA PENHA - MG,-21.01,-46.52,MG
248,BOM JESUS DA SERRA,BOM JESUS DA SERRA - BA,-14.37,-40.5,BA
1155,BOM JESUS DAS SELVAS,BOM JESUS DAS SELVAS - MA,-4.42,-46.76,MA
912,BOM JESUS DE GOIAS,BOM JESUS DE GOIAS - GO,-18.21,-49.74,GO
1419,BOM JESUS DO AMPARO,BOM JESUS DO AMPARO - MG,-19.7,-43.47,MG
1420,BOM JESUS DO GALHO,BOM JESUS DO GALHO - MG,-19.82,-42.31,MG
3575,BOM JESUS DO ITABAPOANA,BOM JESUS DO ITABAPOANA - RJ,-21.13,-41.68,RJ
815,BOM JESUS DO NORTE,BOM JESUS DO NORTE - ES,-21.11,-41.67,ES
4398,BOM JESUS DO OESTE,BOM JESUS DO OESTE - SC,-26.69,-53.09,SC
3206,BOM JESUS DO SUL,BOM JESUS DO SUL - PR,-26.19,-53.59,PR
2415,BOM JESUS DO TOCANTINS,BOM JESUS DO TOCANTINS - PA,-5.05,-48.6,PA
5395,BOM JESUS DO TOCANTINS,BOM JESUS DO TOCANTINS - TO,-8.96,-48.16,TO
4805,BOM JESUS DOS PERDOES,BOM JESUS DOS PERDOES - SP,-23.13,-46.46,SP
1156,BOM LUGAR,BOM LUGAR - MA,-4.22,-45.03,MA
3933,BOM PRINCIPIO,BOM PRINCIPIO - RS,-29.48,-51.35,RS
2975,BOM PRINCIPIO DO PIAUI,BOM PRINCIPIO DO PIAUI - PI,-3.19,-41.64,PI
3934,BOM PROGRESSO,BOM PROGRESSO - RS,-27.54,-53.86,RS
1421,BOM REPOUSO,BOM REPOUSO - MG,-22.47,-46.14,MG
4399,BOM RETIRO,BOM RETIRO - SC,-27.79,-49.48,SC
3935,BOM RETIRO DO SUL,BOM RETIRO DO SUL - RS,-29.6,-51.94,RS
1422,BOM SUCESSO,BOM SUCESSO - MG,-21.03,-44.75,MG
2568,BOM SUCESSO,BOM SUCESSO - PB,-6.44,-37.92,PB
3207,BOM SUCESSO,BOM SUCESSO - PR,-23.71,-51.76,PR
4806,BOM SUCESSO DE ITARARE,BOM SUCESSO DE ITARARE - SP,-24.31,-49.14,SP
3208,BOM SUCESSO DO SUL,BOM SUCESSO DO SUL - PR,-26.07,-52.83,PR
4400,BOMBINHAS,BOMBINHAS - SC,-27.13,-48.51,SC
1423,BONFIM,BONFIM - MG,-20.32,-44.23,MG
3877,BONFIM,BONFIM - RR,3.36,-59.83,RR
2976,BONFIM DO PIAUI,BONFIM DO PIAUI - PI,-9.16,-42.87,PI
913,BONFINOPOLIS,BONFINOPOLIS - GO,-16.61,-48.96,GO
1424,BONFINOPOLIS DE MINAS,BONFINOPOLIS DE MINAS - MG,-16.56,-45.99,MG
249,BONINAL,BONINAL - BA,-12.7,-41.82,BA
250,BONITO,BONITO - BA,-11.96,-41.26,BA
2206,BONITO,BONITO - MS,-21.12,-56.48,MS
2416,BONITO,BONITO - PA,-1.36,-47.3,PA
2784,BONITO,BONITO - PE,-8.47,-35.72,PE
1425,BONITO DE MINAS,BONITO DE MINAS - MG,-15.32,-44.75,MG
2569,BONITO DE SANTA FE,BONITO DE SANTA FE - PB,-7.31,-38.51,PB
914,BONOPOLIS,BONOPOLIS - GO,-13.63,-49.81,GO
2570,BOQUEIRAO,BOQUEIRAO - PB,-7.48,-36.13,PB
3936,BOQUEIRAO DO LEAO,BOQUEIRAO DO LEAO - RS,-29.3,-52.42,RS
2977,BOQUEIRAO DO PIAUI,BOQUEIRAO DO PIAUI - PI,-4.48,-42.07,PI
4657,BOQUIM,BOQUIM - SE,-11.14,-37.62,SE
251,BOQUIRA,BOQUIRA - BA,-12.82,-42.73,BA
4807,BORA,BORA - SP,-22.27,-50.53,SP
4808,BORACEIA,BORACEIA - SP,-22.19,-48.77,SP
137,BORBA,BORBA - AM,-4.38,-59.59,AM
2571,BORBOREMA,BORBOREMA - PB,-6.8,-35.62,PB
4809,BORBOREMA,BORBOREMA - SP,-21.62,-49.07,SP
1426,BORDA DA MATA,BORDA DA MATA - MG,-22.27,-46.16,MG
4810,BOREBI,BOREBI - SP,-22.56,-48.97,SP
3209,BORRAZOPOLIS,BORRAZOPOLIS - PR,-23.94,-51.58,PR
3937,BOSSOROCA,BOSSOROCA - RS,-28.73,-54.9,RS
1427,BOTELHOS,BOTELHOS - MG,-21.63,-46.39,MG
4811,BOTUCATU,BOTUCATU - SP,-22.88,-48.44,SP
1428,BOTUMIRIM,BOTUMIRIM - MG,-16.87,-43.01,MG
252,BOTUPORA,BOTUPORA - BA,-13.38,-42.52,BA
4401,BOTUVERA,BOTUVERA - SC,-27.19,-49.07,SC
4402,BRACO DO NORTE,BRACO DO NORTE - SC,-28.27,-49.16,SC
4403,BRACO DO TROMBUDO,BRACO DO TROMBUDO - SC,-27.35,-49.88,SC
3938,BRAGA,BRAGA - RS,-27.61,-53.73,RS
2417,BRAGANCA,BRAGANCA - PA,-1.06,-46.77,PA
4812,BRAGANCA PAULISTA,BRAGANCA PAULISTA - SP,-22.95,-46.54,SP
3210,BRAGANEY,BRAGANEY - PR,-24.81,-53.12,PR
33,BRANQUINHA,BRANQUINHA - AL,-9.24,-36.01,AL
1429,BRAS PIRES,BRAS PIRES - MG,-20.92,-43.24,MG
2418,BRASIL NOVO,BRASIL NOVO - PA,-3.26,-52.66,PA
2207,BRASILANDIA,BRASILANDIA - MS,-21.25,-52.03,MS
1430,BRASILANDIA DE MINAS,BRASILANDIA DE MINAS - MG,-17.01,-46,MG
3211,BRASILANDIA DO SUL,BRASILANDIA DO SUL - PR,-24.19,-53.52,PR
5396,BRASILANDIA DO TOCANTINS,BRASILANDIA DO TOCANTINS - TO,-8.38,-48.48,TO
3,BRASILEIA,BRASILEIA - AC,-11.01,-68.74,AC
2978,BRASILEIRA,BRASILEIRA - PI,-4.13,-41.78,PI
801,BRASILIA,BRASILIA - DF,-15.78,-47.93,DF
1431,BRASILIA DE MINAS,BRASILIA DE MINAS - MG,-16.2,-44.42,MG
2285,BRASNORTE,BRASNORTE - MT,-12.15,-57.97,MT
1432,BRASOPOLIS,BRASOPOLIS - MG,-22.47,-45.6,MG
4813,BRAUNA,BRAUNA - SP,-21.49,-50.31,SP
1433,BRAUNAS,BRAUNAS - MG,-19.05,-42.71,MG
915,BRAZABRANTES,BRAZABRANTES - GO,-16.43,-49.38,GO
2785,BREJAO,BREJAO - PE,-9.03,-36.56,PE
816,BREJETUBA,BREJETUBA - ES,-20.14,-41.29,ES
2786,BREJINHO,BREJINHO - PE,-7.34,-37.28,PE
3675,BREJINHO,BREJINHO - RN,-6.19,-35.35,RN
5397,BREJINHO DE NAZARE,BREJINHO DE NAZARE - TO,-11,-48.56,TO
1157,BREJO,BREJO - MA,-3.68,-42.75,MA
4814,BREJO ALEGRE,BREJO ALEGRE - SP,-21.16,-50.18,SP
2787,BREJO DA MADRE DE DEUS,BREJO DA MADRE DE DEUS - PE,-8.14,-36.37,PE
1158,BREJO DE AREIA,BREJO DE AREIA - MA,-4.08,-45.49,MA
2572,BREJO DO CRUZ,BREJO DO CRUZ - PB,-6.34,-37.49,PB
2979,BREJO DO PIAUI,BREJO DO PIAUI - PI,-8.21,-42.82,PI
2573,BREJO DOS SANTOS,BREJO DOS SANTOS - PB,-6.37,-37.82,PB
4658,BREJO GRANDE,BREJO GRANDE - SE,-10.42,-36.46,SE
2419,BREJO GRANDE DO ARAGUAIA,BREJO GRANDE DO ARAGUAIA - PA,-5.69,-48.41,PA
647,BREJO SANTO,BREJO SANTO - CE,-7.49,-38.98,CE
253,BREJOES,BREJOES - BA,-13.1,-39.79,BA
254,BREJOLANDIA,BREJOLANDIA - BA,-12.48,-43.96,BA
2420,BREU BRANCO,BREU BRANCO - PA,-4,-49.46,PA
2421,BREVES,BREVES - PA,-1.68,-50.48,PA
916,BRITANIA,BRITANIA - GO,-15.24,-51.16,GO
3939,BROCHIER,BROCHIER - RS,-29.55,-51.59,RS
4815,BRODOSQUI,BRODOSQUI - SP,-20.99,-47.65,SP
4816,BROTAS,BROTAS - SP,-22.28,-48.12,SP
255,BROTAS DE MACAUBAS,BROTAS DE MACAUBAS - BA,-11.99,-42.62,BA
1434,BRUMADINHO,BRUMADINHO - MG,-20.14,-44.2,MG
256,BRUMADO,BRUMADO - BA,-14.2,-41.66,BA
4404,BRUNOPOLIS,BRUNOPOLIS - SC,-27.3,-50.86,SC
4405,BRUSQUE,BRUSQUE - SC,-27.09,-48.91,SC
1435,BUENO BRANDAO,BUENO BRANDAO - MG,-22.44,-46.35,MG
1436,BUENOPOLIS,BUENOPOLIS - MG,-17.87,-44.18,MG
2788,BUENOS AIRES,BUENOS AIRES - PE,-7.72,-35.32,PE
257,BUERAREMA,BUERAREMA - BA,-14.95,-39.3,BA
1437,BUGRE,BUGRE - MG,-19.42,-42.24,MG
2789,BUIQUE,BUIQUE - PE,-8.62,-37.15,PE
4,BUJARI,BUJARI - AC,-9.83,-67.95,AC
2422,BUJARU,BUJARU - PA,-1.51,-48.04,PA
4817,BURI,BURI - SP,-23.79,-48.59,SP
4818,BURITAMA,BURITAMA - SP,-21.06,-50.14,SP
1159,BURITI,BURITI - MA,-3.94,-42.92,MA
917,BURITI ALEGRE,BURITI ALEGRE - GO,-18.14,-49.04,GO
1160,BURITI BRAVO,BURITI BRAVO - MA,-5.83,-43.83,MA
918,BURITI DE GOIAS,BURITI DE GOIAS - GO,-16.18,-50.43,GO
5398,BURITI DO TOCANTINS,BURITI DO TOCANTINS - TO,-5.31,-48.22,TO
2980,BURITI DOS LOPES,BURITI DOS LOPES - PI,-3.17,-41.86,PI
2981,BURITI DOS MONTES,BURITI DOS MONTES - PI,-5.31,-41.09,PI
1161,BURITICUPU,BURITICUPU - MA,-4.34,-46.4,MA
919,BURITINOPOLIS,BURITINOPOLIS - GO,-14.47,-46.4,GO
258,BURITIRAMA,BURITIRAMA - BA,-10.7,-43.63,BA
1162,BURITIRANA,BURITIRANA - MA,-5.59,-47.01,MA
1438,BURITIS,BURITIS - MG,-15.61,-46.42,MG
3827,BURITIS,BURITIS - RO,-10.21,-63.82,RO
4819,BURITIZAL,BURITIZAL - SP,-20.19,-47.7,SP
1439,BURITIZEIRO,BURITIZEIRO - MG,-17.35,-44.96,MG
3940,BUTIA,BUTIA - RS,-30.12,-51.96,RS
138,CAAPIRANGA,CAAPIRANGA - AM,-3.32,-61.2,AM
2574,CAAPORA,CAAPORA - PB,-7.51,-34.9,PB
2208,CAARAPO,CAARAPO - MS,-22.63,-54.82,MS
259,CAATIBA,CAATIBA - BA,-14.97,-40.4,BA
2575,CABACEIRAS,CABACEIRAS - PB,-7.48,-36.28,PB
260,CABACEIRAS DO PARAGUACU,CABACEIRAS DO PARAGUACU - BA,-12.53,-39.19,BA
1440,CABECEIRA GRANDE,CABECEIRA GRANDE - MG,-16.03,-47.09,MG
920,CABECEIRAS,CABECEIRAS - GO,-15.8,-46.92,GO
2982,CABECEIRAS DO PIAUI,CABECEIRAS DO PIAUI - PI,-4.47,-42.3,PI
2576,CABEDELO,CABEDELO - PB,-6.98,-34.83,PB
3828,CABIXI,CABIXI - RO,-13.49,-60.55,RO
2790,CABO DE SANTO AGOSTINHO,CABO DE SANTO AGOSTINHO - PE,-8.28,-35.03,PE
3576,CABO FRIO,CABO FRIO - RJ,-22.87,-42.01,RJ
1441,CABO VERDE,CABO VERDE - MG,-21.47,-46.39,MG
4820,CABRALIA PAULISTA,CABRALIA PAULISTA - SP,-22.45,-49.33,SP
4821,CABREUVA,CABREUVA - SP,-23.3,-47.13,SP
2791,CABROBO,CABROBO - PE,-8.51,-39.3,PE
4406,CACADOR,CACADOR - SC,-26.77,-51.01,SC
4822,CACAPAVA,CACAPAVA - SP,-23.1,-45.7,SP
3941,CACAPAVA DO SUL,CACAPAVA DO SUL - RS,-30.51,-53.49,RS
3829,CACAULANDIA,CACAULANDIA - RO,-10.34,-62.89,RO
3942,CACEQUI,CACEQUI - RS,-29.88,-54.82,RS
2286,CACERES,CACERES - MT,-16.07,-57.67,MT
261,CACHOEIRA,CACHOEIRA - BA,-12.61,-38.95,BA
921,CACHOEIRA ALTA,CACHOEIRA ALTA - GO,-18.76,-50.94,GO
1442,CACHOEIRA DA PRATA,CACHOEIRA DA PRATA - MG,-19.52,-44.45,MG
922,CACHOEIRA DE GOIAS,CACHOEIRA DE GOIAS - GO,-16.66,-50.64,GO
1443,CACHOEIRA DE MINAS,CACHOEIRA DE MINAS - MG,-22.35,-45.77,MG
1444,CACHOEIRA DE PAJEU,CACHOEIRA DE PAJEU - MG,-15.96,-41.49,MG
2423,CACHOEIRA DO ARARI,CACHOEIRA DO ARARI - PA,-1.01,-48.96,PA
2424,CACHOEIRA DO PIRIA,CACHOEIRA DO PIRIA - PA,-1.67,-46.52,PA
3943,CACHOEIRA DO SUL,CACHOEIRA DO SUL - RS,-30.03,-52.89,RS
2577,CACHOEIRA DOS INDIOS,CACHOEIRA DOS INDIOS - PB,-6.92,-38.67,PB
923,CACHOEIRA DOURADA,CACHOEIRA DOURADA - GO,-18.49,-49.47,GO
1445,CACHOEIRA DOURADA,CACHOEIRA DOURADA - MG,-18.51,-49.5,MG
1163,CACHOEIRA GRANDE,CACHOEIRA GRANDE - MA,-2.92,-44.05,MA
4823,CACHOEIRA PAULISTA,CACHOEIRA PAULISTA - SP,-22.66,-45,SP
3577,CACHOEIRAS DE MACACU,CACHOEIRAS DE MACACU - RJ,-22.46,-42.65,RJ
2792,CACHOEIRINHA,CACHOEIRINHA - PE,-8.48,-36.23,PE
3944,CACHOEIRINHA,CACHOEIRINHA - RS,-29.95,-51.09,RS
5399,CACHOEIRINHA,CACHOEIRINHA - TO,-6.12,-47.92,TO
817,CACHOEIRO DE ITAPEMIRIM,CACHOEIRO DE ITAPEMIRIM - ES,-20.84,-41.11,ES
2578,CACIMBA DE AREIA,CACIMBA DE AREIA - PB,-7.12,-37.15,PB
2579,CACIMBA DE DENTRO,CACIMBA DE DENTRO - PB,-6.64,-35.79,PB
2580,CACIMBAS,CACIMBAS - PB,-7.21,-37.05,PB
34,CACIMBINHAS,CACIMBINHAS - AL,-9.4,-36.99,AL
3945,CACIQUE DOBLE,CACIQUE DOBLE - RS,-27.77,-51.66,RS
3830,CACOAL,CACOAL - RO,-11.43,-61.44,RO
4824,CACONDE,CACONDE - SP,-21.52,-46.64,SP
924,CACU,CACU - GO,-18.55,-51.13,GO
262,CACULE,CACULE - BA,-14.5,-42.22,BA
263,CAEM,CAEM - BA,-11.09,-40.43,BA
1446,CAETANOPOLIS,CAETANOPOLIS - MG,-19.29,-44.41,MG
264,CAETANOS,CAETANOS - BA,-14.33,-40.91,BA
1447,CAETE,CAETE - MG,-19.88,-43.67,MG
2793,CAETES,CAETES - PE,-8.77,-36.62,PE
265,CAETITE,CAETITE - BA,-14.06,-42.47,BA
266,CAFARNAUM,CAFARNAUM - BA,-11.69,-41.46,BA
3212,CAFEARA,CAFEARA - PR,-22.79,-51.71,PR
3213,CAFELANDIA,CAFELANDIA - PR,-24.61,-53.32,PR
4825,CAFELANDIA,CAFELANDIA - SP,-21.8,-49.61,SP
3214,CAFEZAL DO SUL,CAFEZAL DO SUL - PR,-23.9,-53.51,PR
4826,CAIABU,CAIABU - SP,-22.01,-51.23,SP
1448,CAIANA,CAIANA - MG,-20.69,-41.92,MG
925,CAIAPONIA,CAIAPONIA - GO,-16.95,-51.81,GO
3946,CAIBATE,CAIBATE - RS,-28.28,-54.63,RS
4407,CAIBI,CAIBI - SC,-27.07,-53.24,SC
2581,CAICARA,CAICARA - PB,-6.55,-35.41,PB
3947,CAICARA,CAICARA - RS,-27.27,-53.43,RS
3676,CAICARA DO NORTE,CAICARA DO NORTE - RN,-5.09,-35.95,RN
3677,CAICARA DO RIO DO VENTO,CAICARA DO RIO DO VENTO - RN,-5.76,-35.99,RN
3678,CAICO,CAICO - RN,-6.45,-37.09,RN
4827,CAIEIRAS,CAIEIRAS - SP,-23.36,-46.74,SP
267,CAIRU,CAIRU - BA,-13.48,-39.04,BA
4828,CAIUA,CAIUA - SP,-21.83,-51.99,SP
4829,CAJAMAR,CAJAMAR - SP,-23.35,-46.87,SP
1164,CAJAPIO,CAJAPIO - MA,-2.88,-44.67,MA
1165,CAJARI,CAJARI - MA,-3.32,-45.01,MA
4830,CAJATI,CAJATI - SP,-24.73,-48.12,SP
2582,CAJAZEIRAS,CAJAZEIRAS - PB,-6.89,-38.56,PB
2983,CAJAZEIRAS DO PIAUI,CAJAZEIRAS DO PIAUI - PI,-6.76,-42.39,PI
2583,CAJAZEIRINHAS,CAJAZEIRINHAS - PB,-6.96,-37.8,PB
4831,CAJOBI,CAJOBI - SP,-20.88,-48.8,SP
35,CAJUEIRO,CAJUEIRO - AL,-9.39,-36.15,AL
2984,CAJUEIRO DA PRAIA,CAJUEIRO DA PRAIA - PI,-2.92,-41.33,PI
1449,CAJURI,CAJURI - MG,-20.79,-42.79,MG
4832,CAJURU,CAJURU - SP,-21.27,-47.3,SP
2794,CALCADO,CALCADO - PE,-8.74,-36.33,PE
187,CALCOENE,CALCOENE - AP,2.49,-50.94,AP
1450,CALDAS,CALDAS - MG,-21.92,-46.38,MG
2584,CALDAS BRANDAO,CALDAS BRANDAO - PB,-7.1,-35.32,PB
926,CALDAS NOVAS,CALDAS NOVAS - GO,-17.74,-48.62,GO
927,CALDAZINHA,CALDAZINHA - GO,-16.71,-49,GO
268,CALDEIRAO GRANDE,CALDEIRAO GRANDE - BA,-11.02,-40.3,BA
2985,CALDEIRAO GRANDE DO PIAUI,CALDEIRAO GRANDE DO PIAUI - PI,-7.33,-40.63,PI
3215,CALIFORNIA,CALIFORNIA - PR,-23.65,-51.35,PR
4408,CALMON,CALMON - SC,-26.6,-51.09,SC
2795,CALUMBI,CALUMBI - PE,-7.94,-38.15,PE
269,CAMACAN,CAMACAN - BA,-15.41,-39.49,BA
270,CAMACARI,CAMACARI - BA,-12.69,-38.32,BA
1451,CAMACHO,CAMACHO - MG,-20.62,-45.15,MG
2585,CAMALAU,CAMALAU - PB,-7.88,-36.82,PB
271,CAMAMU,CAMAMU - BA,-13.94,-39.1,BA
1452,CAMANDUCAIA,CAMANDUCAIA - MG,-22.75,-46.14,MG
2209,CAMAPUA,CAMAPUA - MS,-19.53,-54.04,MS
3948,CAMAQUA,CAMAQUA - RS,-30.85,-51.81,RS
2796,CAMARAGIBE,CAMARAGIBE - PE,-8.02,-34.98,PE
3949,CAMARGO,CAMARGO - RS,-28.58,-52.2,RS
3216,CAMBARA,CAMBARA - PR,-23.04,-50.07,PR
3950,CAMBARA DO SUL,CAMBARA DO SUL - RS,-29.04,-50.14,RS
3217,CAMBE,CAMBE - PR,-23.27,-51.27,PR
3218,CAMBIRA,CAMBIRA - PR,-23.58,-51.57,PR
4409,CAMBORIU,CAMBORIU - SC,-27.02,-48.65,SC
3578,CAMBUCI,CAMBUCI - RJ,-21.57,-41.91,RJ
1453,CAMBUI,CAMBUI - MG,-22.61,-46.05,MG
1454,CAMBUQUIRA,CAMBUQUIRA - MG,-21.85,-45.29,MG
2425,CAMETA,CAMETA - PA,-2.24,-49.49,PA
648,CAMOCIM,CAMOCIM - CE,-2.9,-40.84,CE
2797,CAMOCIM DE SAO FELIX,CAMOCIM DE SAO FELIX - PE,-8.35,-35.76,PE
1455,CAMPANARIO,CAMPANARIO - MG,-18.23,-41.74,MG
1456,CAMPANHA,CAMPANHA - MG,-21.83,-45.4,MG
36,CAMPESTRE,CAMPESTRE - AL,-8.84,-35.56,AL
1457,CAMPESTRE,CAMPESTRE - MG,-21.71,-46.24,MG
3951,CAMPESTRE DA SERRA,CAMPESTRE DA SERRA - RS,-28.79,-51.09,RS
928,CAMPESTRE DE GOIAS,CAMPESTRE DE GOIAS - GO,-16.76,-49.69,GO
1166,CAMPESTRE DO MARANHAO,CAMPESTRE DO MARANHAO - MA,-6.17,-47.36,MA
3219,CAMPINA DA LAGOA,CAMPINA DA LAGOA - PR,-24.59,-52.79,PR
3952,CAMPINA DAS MISSOES,CAMPINA DAS MISSOES - RS,-27.98,-54.83,RS
4833,CAMPINA DO MONTE ALEGRE,CAMPINA DO MONTE ALEGRE - SP,-23.59,-48.47,SP
3220,CAMPINA DO SIMAO,CAMPINA DO SIMAO - PR,-25.07,-51.82,PR
2586,CAMPINA GRANDE,CAMPINA GRANDE - PB,-7.23,-35.88,PB
3221,CAMPINA GRANDE DO SUL,CAMPINA GRANDE DO SUL - PR,-25.3,-49.05,PR
1458,CAMPINA VERDE,CAMPINA VERDE - MG,-19.53,-49.48,MG
929,CAMPINACU,CAMPINACU - GO,-13.79,-48.57,GO
2287,CAMPINAPOLIS,CAMPINAPOLIS - MT,-14.51,-52.89,MT
4834,CAMPINAS,CAMPINAS - SP,-22.9,-47.06,SP
2986,CAMPINAS DO PIAUI,CAMPINAS DO PIAUI - PI,-7.66,-41.88,PI
3953,CAMPINAS DO SUL,CAMPINAS DO SUL - RS,-27.71,-52.62,RS
930,CAMPINORTE,CAMPINORTE - GO,-14.31,-49.15,GO
37,CAMPO ALEGRE,CAMPO ALEGRE - AL,-9.78,-36.35,AL
4410,CAMPO ALEGRE,CAMPO ALEGRE - SC,-26.19,-49.26,SC
931,CAMPO ALEGRE DE GOIAS,CAMPO ALEGRE DE GOIAS - GO,-17.63,-47.78,GO
272,CAMPO ALEGRE DE LOURDES,CAMPO ALEGRE DE LOURDES - BA,-9.51,-43.01,BA
2987,CAMPO ALEGRE DO FIDALGO,CAMPO ALEGRE DO FIDALGO - PI,-8.37,-41.83,PI
1459,CAMPO AZUL,CAMPO AZUL - MG,-16.5,-44.81,MG
1460,CAMPO BELO,CAMPO BELO - MG,-20.89,-45.27,MG
4411,CAMPO BELO DO SUL,CAMPO BELO DO SUL - SC,-27.89,-50.76,SC
3954,CAMPO BOM,CAMPO BOM - RS,-29.67,-51.05,RS
3222,CAMPO BONITO,CAMPO BONITO - PR,-25.03,-52.99,PR
4659,CAMPO DO BRITO,CAMPO DO BRITO - SE,-10.73,-37.49,SE
1461,CAMPO DO MEIO,CAMPO DO MEIO - MG,-21.1,-45.83,MG
3223,CAMPO DO TENENTE,CAMPO DO TENENTE - PR,-25.97,-49.68,PR
4412,CAMPO ERE,CAMPO ERE - SC,-26.39,-53.07,SC
1462,CAMPO FLORIDO,CAMPO FLORIDO - MG,-19.76,-48.57,MG
273,CAMPO FORMOSO,CAMPO FORMOSO - BA,-10.5,-40.32,BA
38,CAMPO GRANDE,CAMPO GRANDE - AL,-9.95,-36.79,AL
2210,CAMPO GRANDE,CAMPO GRANDE - MS,-20.44,-54.64,MS
2988,CAMPO GRANDE DO PIAUI,CAMPO GRANDE DO PIAUI - PI,-7.13,-41.03,PI
3224,CAMPO LARGO,CAMPO LARGO - PR,-25.45,-49.52,PR
2989,CAMPO LARGO DO PIAUI,CAMPO LARGO DO PIAUI - PI,-3.81,-42.62,PI
4835,CAMPO LIMPO PAULISTA,CAMPO LIMPO PAULISTA - SP,-23.2,-46.78,SP
3225,CAMPO MAGRO,CAMPO MAGRO - PR,-25.36,-49.45,PR
2990,CAMPO MAIOR,CAMPO MAIOR - PI,-4.82,-42.16,PI
3226,CAMPO MOURAO,CAMPO MOURAO - PR,-24.04,-52.38,PR
3955,CAMPO NOVO,CAMPO NOVO - RS,-27.67,-53.8,RS
3831,CAMPO NOVO DE RONDONIA,CAMPO NOVO DE RONDONIA - RO,-10.59,-63.61,RO
2288,CAMPO NOVO DO PARECIS,CAMPO NOVO DO PARECIS - MT,-13.67,-57.89,MT
3679,CAMPO REDONDO,CAMPO REDONDO - RN,-6.24,-36.18,RN
2289,CAMPO VERDE,CAMPO VERDE - MT,-15.54,-55.16,MT
1463,CAMPOS ALTOS,CAMPOS ALTOS - MG,-19.69,-46.17,MG
932,CAMPOS BELOS,CAMPOS BELOS - GO,-13.03,-46.77,GO
3956,CAMPOS BORGES,CAMPOS BORGES - RS,-28.88,-52.99,RS
2290,CAMPOS DE JULIO,CAMPOS DE JULIO - MT,-13.89,-59.14,MT
4836,CAMPOS DO JORDAO,CAMPOS DO JORDAO - SP,-22.73,-45.59,SP
3579,CAMPOS DOS GOYTACAZES,CAMPOS DOS GOYTACAZES - RJ,-21.75,-41.32,RJ
1464,CAMPOS GERAIS,CAMPOS GERAIS - MG,-21.23,-45.75,MG
5400,CAMPOS LINDOS,CAMPOS LINDOS - TO,-7.99,-46.86,TO
4413,CAMPOS NOVOS,CAMPOS NOVOS - SC,-27.4,-51.22,SC
4837,CAMPOS NOVOS PAULISTA,CAMPOS NOVOS PAULISTA - SP,-22.6,-50,SP
649,CAMPOS SALES,CAMPOS SALES - CE,-7.07,-40.37,CE
933,CAMPOS VERDES,CAMPOS VERDES - GO,-14.25,-49.65,GO
2798,CAMUTANGA,CAMUTANGA - PE,-7.4,-35.27,PE
1465,CANA VERDE,CANA VERDE - MG,-21.02,-45.18,MG
1466,CANAA,CANAA - MG,-20.68,-42.62,MG
2426,CANAA DOS CARAJAS,CANAA DOS CARAJAS - PA,-6.49,-49.87,PA
2291,CANABRAVA DO NORTE,CANABRAVA DO NORTE - MT,-11.05,-51.83,MT
4838,CANANEIA,CANANEIA - SP,-25.01,-47.92,SP
39,CANAPI,CANAPI - AL,-9.12,-37.6,AL
274,CANAPOLIS,CANAPOLIS - BA,-13.07,-44.2,BA
1467,CANAPOLIS,CANAPOLIS - MG,-18.72,-49.2,MG
275,CANARANA,CANARANA - BA,-11.68,-41.76,BA
2292,CANARANA,CANARANA - MT,-13.55,-52.16,MT
4839,CANAS,CANAS - SP,-22.7,-45.05,SP
2991,CANAVIEIRA,CANAVIEIRA - PI,-7.68,-43.72,PI
276,CANAVIEIRAS,CANAVIEIRAS - BA,-15.67,-38.94,BA
277,CANDEAL,CANDEAL - BA,-11.8,-39.11,BA
278,CANDEIAS,CANDEIAS - BA,-12.66,-38.55,BA
1468,CANDEIAS,CANDEIAS - MG,-20.76,-45.27,MG
3832,CANDEIAS DO JAMARI,CANDEIAS DO JAMARI - RO,-8.81,-63.69,RO
3957,CANDELARIA,CANDELARIA - RS,-29.66,-52.78,RS
279,CANDIBA,CANDIBA - BA,-14.41,-42.86,BA
3227,CANDIDO DE ABREU,CANDIDO DE ABREU - PR,-24.56,-51.33,PR
3958,CANDIDO GODOI,CANDIDO GODOI - RS,-27.95,-54.75,RS
1167,CANDIDO MENDES,CANDIDO MENDES - MA,-1.44,-45.71,MA
4840,CANDIDO MOTA,CANDIDO MOTA - SP,-22.74,-50.38,SP
4841,CANDIDO RODRIGUES,CANDIDO RODRIGUES - SP,-21.32,-48.63,SP
280,CANDIDO SALES,CANDIDO SALES - BA,-15.5,-41.23,BA
3959,CANDIOTA,CANDIOTA - RS,-31.55,-53.67,RS
3228,CANDOI,CANDOI - PR,-25.66,-52.12,PR
3960,CANELA,CANELA - RS,-29.36,-50.81,RS
4414,CANELINHA,CANELINHA - SC,-27.26,-48.76,SC
3680,CANGUARETAMA,CANGUARETAMA - RN,-6.38,-35.12,RN
3961,CANGUCU,CANGUCU - RS,-31.39,-52.67,RS
4660,CANHOBA,CANHOBA - SE,-10.13,-36.98,SE
2799,CANHOTINHO,CANHOTINHO - PE,-8.88,-36.19,PE
650,CANINDE,CANINDE - CE,-4.35,-39.31,CE
4661,CANINDE DE SAO FRANCISCO,CANINDE DE SAO FRANCISCO - SE,-9.64,-37.78,SE
4842,CANITAR,CANITAR - SP,-23,-49.78,SP
3962,CANOAS,CANOAS - RS,-29.91,-51.18,RS
4415,CANOINHAS,CANOINHAS - SC,-26.17,-50.39,SC
281,CANSANCAO,CANSANCAO - BA,-10.67,-39.49,BA
3878,CANTA,CANTA - RR,2.61,-60.59,RR
1469,CANTAGALO,CANTAGALO - MG,-18.52,-42.62,MG
3229,CANTAGALO,CANTAGALO - PR,-25.37,-52.12,PR
3580,CANTAGALO,CANTAGALO - RJ,-21.98,-42.36,RJ
1168,CANTANHEDE,CANTANHEDE - MA,-3.63,-44.37,MA
2992,CANTO DO BURITI,CANTO DO BURITI - PI,-8.11,-42.94,PI
282,CANUDOS,CANUDOS - BA,-9.9,-39.13,BA
139,CANUTAMA,CANUTAMA - AM,-6.53,-64.38,AM
2427,CAPANEMA,CAPANEMA - PA,-1.19,-47.18,PA
3230,CAPANEMA,CAPANEMA - PR,-25.67,-53.8,PR
4416,CAPAO ALTO,CAPAO ALTO - SC,-27.93,-50.51,SC
4843,CAPAO BONITO,CAPAO BONITO - SP,-24,-48.34,SP
3963,CAPAO DA CANOA,CAPAO DA CANOA - RS,-29.76,-50.03,RS
3964,CAPAO DO LEAO,CAPAO DO LEAO - RS,-31.76,-52.48,RS
1470,CAPARAO,CAPARAO - MG,-20.43,-41.86,MG
40,CAPELA,CAPELA - AL,-9.4,-36.07,AL
4662,CAPELA,CAPELA - SE,-10.5,-37.05,SE
3965,CAPELA DE SANTANA,CAPELA DE SANTANA - RS,-29.7,-51.32,RS
4844,CAPELA DO ALTO,CAPELA DO ALTO - SP,-23.47,-47.73,SP
283,CAPELA DO ALTO ALEGRE,CAPELA DO ALTO ALEGRE - BA,-11.66,-39.83,BA
1471,CAPELA NOVA,CAPELA NOVA - MG,-20.92,-43.61,MG
1472,CAPELINHA,CAPELINHA - MG,-17.69,-42.51,MG
1473,CAPETINGA,CAPETINGA - MG,-20.61,-47.05,MG
2587,CAPIM,CAPIM - PB,-6.91,-35.17,PB
1474,CAPIM BRANCO,CAPIM BRANCO - MG,-19.54,-44.11,MG
284,CAPIM GROSSO,CAPIM GROSSO - BA,-11.38,-40.01,BA
1475,CAPINOPOLIS,CAPINOPOLIS - MG,-18.68,-49.57,MG
4417,CAPINZAL,CAPINZAL - SC,-27.34,-51.61,SC
1169,CAPINZAL DO NORTE,CAPINZAL DO NORTE - MA,-4.72,-44.32,MA
651,CAPISTRANO,CAPISTRANO - CE,-4.47,-38.9,CE
3966,CAPITAO,CAPITAO - RS,-29.26,-51.98,RS
1476,CAPITAO ANDRADE,CAPITAO ANDRADE - MG,-19.06,-41.85,MG
2993,CAPITAO DE CAMPOS,CAPITAO DE CAMPOS - PI,-4.45,-41.94,PI
1477,CAPITAO ENEAS,CAPITAO ENEAS - MG,-16.32,-43.71,MG
2994,CAPITAO GERVASIO OLIVEIRA,CAPITAO GERVASIO OLIVEIRA - PI,-8.49,-41.82,PI
3231,CAPITAO LEONIDAS MARQUES,CAPITAO LEONIDAS MARQUES - PR,-25.47,-53.61,PR
2428,CAPITAO POCO,CAPITAO POCO - PA,-1.74,-47.06,PA
1478,CAPITOLIO,CAPITOLIO - MG,-20.61,-46.05,MG
4845,CAPIVARI,CAPIVARI - SP,-22.99,-47.5,SP
4418,CAPIVARI DE BAIXO,CAPIVARI DE BAIXO - SC,-28.44,-48.95,SC
3967,CAPIVARI DO SUL,CAPIVARI DO SUL - RS,-30.14,-50.51,RS
5,CAPIXABA,CAPIXABA - AC,-10.57,-67.67,AC
2800,CAPOEIRAS,CAPOEIRAS - PE,-8.73,-36.62,PE
1479,CAPUTIRA,CAPUTIRA - MG,-20.17,-42.27,MG
3968,CARAA,CARAA - RS,-29.79,-50.43,RS
3879,CARACARAI,CARACARAI - RR,1.81,-61.12,RR
2211,CARACOL,CARACOL - MS,-22.01,-57.02,MS
2995,CARACOL,CARACOL - PI,-9.27,-43.33,PI
4846,CARAGUATATUBA,CARAGUATATUBA - SP,-23.62,-45.41,SP
1480,CARAI,CARAI - MG,-17.18,-41.69,MG
285,CARAIBAS,CARAIBAS - BA,-14.6,-41.33,BA
3232,CARAMBEI,CARAMBEI - PR,-24.91,-50.09,PR
1481,CARANAIBA,CARANAIBA - MG,-20.87,-43.73,MG
1482,CARANDAI,CARANDAI - MG,-20.95,-43.8,MG
1483,CARANGOLA,CARANGOLA - MG,-20.73,-42.02,MG
3581,CARAPEBUS,CARAPEBUS - RJ,-22.18,-41.66,RJ
4847,CARAPICUIBA,CARAPICUIBA - SP,-23.52,-46.83,SP
1484,CARATINGA,CARATINGA - MG,-19.79,-42.13,MG
140,CARAUARI,CARAUARI - AM,-4.88,-66.89,AM
2588,CARAUBAS,CARAUBAS - PB,-7.72,-36.49,PB
3681,CARAUBAS,CARAUBAS - RN,-5.79,-37.55,RN
2996,CARAUBAS DO PIAUI,CARAUBAS DO PIAUI - PI,-3.47,-41.84,PI
286,CARAVELAS,CARAVELAS - BA,-17.73,-39.26,BA
3969,CARAZINHO,CARAZINHO - RS,-28.28,-52.78,RS
1485,CARBONITA,CARBONITA - MG,-17.52,-43.01,MG
287,CARDEAL DA SILVA,CARDEAL DA SILVA - BA,-11.94,-37.94,BA
4848,CARDOSO,CARDOSO - SP,-20.08,-49.91,SP
3582,CARDOSO MOREIRA,CARDOSO MOREIRA - RJ,-21.48,-41.61,RJ
1486,CAREACU,CAREACU - MG,-22.04,-45.69,MG
141,CAREIRO,CAREIRO - AM,-3.76,-60.36,AM
142,CAREIRO DA VARZEA,CAREIRO DA VARZEA - AM,-3.22,-59.82,AM
818,CARIACICA,CARIACICA - ES,-20.26,-40.42,ES
652,CARIDADE,CARIDADE - CE,-4.23,-39.19,CE
2997,CARIDADE DO PIAUI,CARIDADE DO PIAUI - PI,-7.73,-40.99,PI
288,CARINHANHA,CARINHANHA - BA,-14.3,-43.76,BA
4663,CARIRA,CARIRA - SE,-10.36,-37.7,SE
653,CARIRE,CARIRE - CE,-3.95,-40.47,CE
5401,CARIRI DO TOCANTINS,CARIRI DO TOCANTINS - TO,-11.89,-49.16,TO
654,CARIRIACU,CARIRIACU - CE,-7.04,-39.28,CE
655,CARIUS,CARIUS - CE,-6.53,-39.49,CE
2293,CARLINDA,CARLINDA - MT,-9.95,-55.83,MT
3233,CARLOPOLIS,CARLOPOLIS - PR,-23.42,-49.72,PR
3970,CARLOS BARBOSA,CARLOS BARBOSA - RS,-29.29,-51.5,RS
1487,CARLOS CHAGAS,CARLOS CHAGAS - MG,-17.7,-40.76,MG
3971,CARLOS GOMES,CARLOS GOMES - RS,-27.71,-51.91,RS
1488,CARMESIA,CARMESIA - MG,-19.08,-43.14,MG
3583,CARMO,CARMO - RJ,-21.93,-42.6,RJ
1489,CARMO DA CACHOEIRA,CARMO DA CACHOEIRA - MG,-21.46,-45.22,MG
1490,CARMO DA MATA,CARMO DA MATA - MG,-20.55,-44.87,MG
1491,CARMO DE MINAS,CARMO DE MINAS - MG,-22.12,-45.12,MG
1492,CARMO DO CAJURU,CARMO DO CAJURU - MG,-20.18,-44.77,MG
1493,CARMO DO PARANAIBA,CARMO DO PARANAIBA - MG,-19,-46.31,MG
1494,CARMO DO RIO CLARO,CARMO DO RIO CLARO - MG,-20.97,-46.11,MG
934,CARMO DO RIO VERDE,CARMO DO RIO VERDE - GO,-15.35,-49.7,GO
5402,CARMOLANDIA,CARMOLANDIA - TO,-7.03,-48.39,TO
4664,CARMOPOLIS,CARMOPOLIS - SE,-10.64,-36.98,SE
1495,CARMOPOLIS DE MINAS,CARMOPOLIS DE MINAS - MG,-20.54,-44.63,MG
2801,CARNAIBA,CARNAIBA - PE,-7.8,-37.79,PE
3682,CARNAUBA DOS DANTAS,CARNAUBA DOS DANTAS - RN,-6.55,-36.59,RN
3683,CARNAUBAIS,CARNAUBAIS - RN,-5.34,-36.83,RN
656,CARNAUBAL,CARNAUBAL - CE,-4.16,-40.94,CE
2802,CARNAUBEIRA DA PENHA,CARNAUBEIRA DA PENHA - PE,-8.32,-38.74,PE
1496,CARNEIRINHO,CARNEIRINHO - MG,-19.69,-50.68,MG
41,CARNEIROS,CARNEIROS - AL,-9.48,-37.37,AL
3880,CAROEBE,CAROEBE - RR,0.88,-59.69,RR
1170,CAROLINA,CAROLINA - MA,-7.33,-47.46,MA
2803,CARPINA,CARPINA - PE,-7.85,-35.25,PE
1497,CARRANCAS,CARRANCAS - MG,-21.48,-44.64,MG
2589,CARRAPATEIRA,CARRAPATEIRA - PB,-7.03,-38.34,PB
5403,CARRASCO BONITO,CARRASCO BONITO - TO,-5.32,-48.03,TO
2804,CARUARU,CARUARU - PE,-8.28,-35.97,PE
1171,CARUTAPERA,CARUTAPERA - MA,-1.19,-46.02,MA
1498,CARVALHOPOLIS,CARVALHOPOLIS - MG,-21.77,-45.84,MG
1499,CARVALHOS,CARVALHOS - MG,-22,-44.46,MG
4849,CASA BRANCA,CASA BRANCA - SP,-21.77,-47.08,SP
1500,CASA GRANDE,CASA GRANDE - MG,-20.79,-43.93,MG
289,CASA NOVA,CASA NOVA - BA,-9.16,-40.97,BA
3972,CASCA,CASCA - RS,-28.56,-51.97,RS
1501,CASCALHO RICO,CASCALHO RICO - MG,-18.57,-47.87,MG
657,CASCAVEL,CASCAVEL - CE,-4.13,-38.23,CE
3234,CASCAVEL,CASCAVEL - PR,-24.95,-53.45,PR
5404,CASEARA,CASEARA - TO,-9.27,-49.95,TO
3973,CASEIROS,CASEIROS - RS,-28.26,-51.69,RS
3584,CASIMIRO DE ABREU,CASIMIRO DE ABREU - RJ,-22.48,-42.2,RJ
2805,CASINHAS,CASINHAS - PE,-7.74,-35.72,PE
2590,CASSERENGUE,CASSERENGUE - PB,-6.75,-35.71,PB
1502,CASSIA,CASSIA - MG,-20.58,-46.92,MG
4850,CASSIA DOS COQUEIROS,CASSIA DOS COQUEIROS - SP,-21.28,-47.17,SP
2212,CASSILANDIA,CASSILANDIA - MS,-19.11,-51.73,MS
2429,CASTANHAL,CASTANHAL - PA,-1.29,-47.92,PA
2294,CASTANHEIRA,CASTANHEIRA - MT,-11.13,-58.6,MT
3833,CASTANHEIRAS,CASTANHEIRAS - RO,-11.41,-61.95,RO
935,CASTELANDIA,CASTELANDIA - GO,-18.09,-50.2,GO
819,CASTELO,CASTELO - ES,-20.6,-41.18,ES
2998,CASTELO DO PIAUI,CASTELO DO PIAUI - PI,-5.32,-41.55,PI
4851,CASTILHO,CASTILHO - SP,-20.87,-51.48,SP
3235,CASTRO,CASTRO - PR,-24.79,-50.01,PR
290,CASTRO ALVES,CASTRO ALVES - BA,-12.76,-39.42,BA
1503,CATAGUASES,CATAGUASES - MG,-21.38,-42.69,MG
936,CATALAO,CATALAO - GO,-18.17,-47.94,GO
4852,CATANDUVA,CATANDUVA - SP,-21.13,-48.97,SP
3236,CATANDUVAS,CATANDUVAS - PR,-25.2,-53.15,PR
4419,CATANDUVAS,CATANDUVAS - SC,-27.07,-51.66,SC
658,CATARINA,CATARINA - CE,-6.13,-39.87,CE
1504,CATAS ALTAS,CATAS ALTAS - MG,-20.07,-43.4,MG
1505,CATAS ALTAS DA NORUEGA,CATAS ALTAS DA NORUEGA - MG,-20.69,-43.49,MG
2806,CATENDE,CATENDE - PE,-8.66,-35.71,PE
4853,CATIGUA,CATIGUA - SP,-21.04,-49.05,SP
2591,CATINGUEIRA,CATINGUEIRA - PB,-7.12,-37.6,PB
291,CATOLANDIA,CATOLANDIA - BA,-12.31,-44.86,BA
2592,CATOLE DO ROCHA,CATOLE DO ROCHA - PB,-6.34,-37.74,PB
292,CATU,CATU - BA,-12.35,-38.37,BA
3974,CATUIPE,CATUIPE - RS,-28.25,-54.01,RS
1506,CATUJI,CATUJI - MG,-17.31,-41.51,MG
659,CATUNDA,CATUNDA - CE,-4.64,-40.2,CE
937,CATURAI,CATURAI - GO,-16.44,-49.49,GO
293,CATURAMA,CATURAMA - BA,-13.32,-42.29,BA
2593,CATURITE,CATURITE - PB,-7.42,-36.02,PB
1507,CATUTI,CATUTI - MG,-15.35,-42.96,MG
660,CAUCAIA,CAUCAIA - CE,-3.73,-38.65,CE
938,CAVALCANTE,CAVALCANTE - GO,-13.79,-47.45,GO
1508,CAXAMBU,CAXAMBU - MG,-21.97,-44.93,MG
4420,CAXAMBU DO SUL,CAXAMBU DO SUL - SC,-27.16,-52.87,SC
1172,CAXIAS,CAXIAS - MA,-4.85,-43.35,MA
3975,CAXIAS DO SUL,CAXIAS DO SUL - RS,-29.16,-51.17,RS
2999,CAXINGO,CAXINGO - PI,-3.41,-41.89,PI
3684,CEARA-MIRIM,CEARA-MIRIM - RN,-5.63,-35.42,RN
1173,CEDRAL,CEDRAL - MA,-2,-44.53,MA
4854,CEDRAL,CEDRAL - SP,-20.9,-49.26,SP
661,CEDRO,CEDRO - CE,-6.6,-39.06,CE
2807,CEDRO,CEDRO - PE,-7.72,-39.23,PE
4665,CEDRO DE SAO JOAO,CEDRO DE SAO JOAO - SE,-10.25,-36.88,SE
1509,CEDRO DO ABAETE,CEDRO DO ABAETE - MG,-19.14,-45.71,MG
4421,CELSO RAMOS,CELSO RAMOS - SC,-27.63,-51.33,SC
3976,CENTENARIO,CENTENARIO - RS,-27.76,-51.99,RS
5405,CENTENARIO,CENTENARIO - TO,-8.95,-47.33,TO
3237,CENTENARIO DO SUL,CENTENARIO DO SUL - PR,-22.82,-51.59,PR
294,CENTRAL,CENTRAL - BA,-11.13,-42.11,BA
1510,CENTRAL DE MINAS,CENTRAL DE MINAS - MG,-18.76,-41.3,MG
1174,CENTRAL DO MARANHAO,CENTRAL DO MARANHAO - MA,-2.19,-44.82,MA
1511,CENTRALINA,CENTRALINA - MG,-18.58,-49.19,MG
1175,CENTRO DO GUILHERME,CENTRO DO GUILHERME - MA,-2.36,-46,MA
1176,CENTRO NOVO DO MARANHAO,CENTRO NOVO DO MARANHAO - MA,-2.1,-46.12,MA
3834,CEREJEIRAS,CEREJEIRAS - RO,-13.18,-60.81,RO
939,CERES,CERES - GO,-15.3,-49.59,GO
4855,CERQUEIRA CESAR,CERQUEIRA CESAR - SP,-23.03,-49.16,SP
4856,CERQUILHO,CERQUILHO - SP,-23.16,-47.74,SP
3977,CERRITO,CERRITO - RS,-31.85,-52.81,RS
3238,CERRO AZUL,CERRO AZUL - PR,-24.82,-49.26,PR
3978,CERRO BRANCO,CERRO BRANCO - RS,-29.65,-52.93,RS
3685,CERRO CORA,CERRO CORA - RN,-6.04,-36.34,RN
3979,CERRO GRANDE,CERRO GRANDE - RS,-27.6,-53.16,RS
3980,CERRO GRANDE DO SUL,CERRO GRANDE DO SUL - RS,-30.59,-51.73,RS
3981,CERRO LARGO,CERRO LARGO - RS,-28.14,-54.73,RS
4422,CERRO NEGRO,CERRO NEGRO - SC,-27.79,-50.87,SC
4857,CESARIO LANGE,CESARIO LANGE - SP,-23.22,-47.95,SP
3239,CEU AZUL,CEU AZUL - PR,-25.14,-53.84,PR
940,CEZARINA,CEZARINA - GO,-16.97,-49.77,GO
2808,CHA DE ALEGRIA,CHA DE ALEGRIA - PE,-8,-35.21,PE
2809,CHA GRANDE,CHA GRANDE - PE,-8.23,-35.46,PE
42,CHA PRETA,CHA PRETA - AL,-9.25,-36.29,AL
1512,CHACARA,CHACARA - MG,-21.67,-43.22,MG
1513,CHALE,CHALE - MG,-20.04,-41.68,MG
3982,CHAPADA,CHAPADA - RS,-28.05,-53.06,RS
5406,CHAPADA DA NATIVIDADE,CHAPADA DA NATIVIDADE - TO,-11.61,-47.75,TO
5407,CHAPADA DE AREIA,CHAPADA DE AREIA - TO,-10.14,-49.14,TO
1514,CHAPADA DO NORTE,CHAPADA DO NORTE - MG,-17.08,-42.53,MG
2295,CHAPADA DOS GUIMARAES,CHAPADA DOS GUIMARAES - MT,-15.46,-55.75,MT
1515,CHAPADA GAUCHA,CHAPADA GAUCHA - MG,-15.3,-45.61,MG
941,CHAPADAO DO CEU,CHAPADAO DO CEU - GO,-18.4,-52.54,GO
4423,CHAPADAO DO LAGEADO,CHAPADAO DO LAGEADO - SC,-27.59,-49.55,SC
2213,CHAPADAO DO SUL,CHAPADAO DO SUL - MS,-18.79,-52.62,MS
1177,CHAPADINHA,CHAPADINHA - MA,-3.74,-43.36,MA
4424,CHAPECO,CHAPECO - SC,-27.09,-52.61,SC
4858,CHARQUEADA,CHARQUEADA - SP,-22.51,-47.77,SP
3983,CHARQUEADAS,CHARQUEADAS - RS,-29.95,-51.62,RS
3984,CHARRUA,CHARRUA - RS,-27.95,-52.01,RS
662,CHAVAL,CHAVAL - CE,-3.03,-41.24,CE
4859,CHAVANTES,CHAVANTES - SP,-23.03,-49.7,SP
2430,CHAVES,CHAVES - PA,-0.16,-49.98,PA
1516,CHIADOR,CHIADOR - MG,-22,-43.05,MG
3985,CHIAPETA,CHIAPETA - RS,-27.92,-53.94,RS
3240,CHOPINZINHO,CHOPINZINHO - PR,-25.85,-52.52,PR
663,CHORO,CHORO - CE,-4.84,-39.14,CE
664,CHOROZINHO,CHOROZINHO - CE,-4.3,-38.49,CE
295,CHORROCHO,CHORROCHO - BA,-8.98,-39.09,BA
3986,CHUI,CHUI - RS,-33.69,-53.45,RS
3835,CHUPINGUAIA,CHUPINGUAIA - RO,-12.55,-60.9,RO
3987,CHUVISCA,CHUVISCA - RS,-30.75,-51.97,RS
3241,CIANORTE,CIANORTE - PR,-23.66,-52.6,PR
296,CICERO DANTAS,CICERO DANTAS - BA,-10.6,-38.38,BA
3242,CIDADE GAUCHA,CIDADE GAUCHA - PR,-23.38,-52.94,PR
942,CIDADE OCIDENTAL,CIDADE OCIDENTAL - GO,-16.07,-47.92,GO
1178,CIDELANDIA,CIDELANDIA - MA,-5.17,-47.78,MA
3988,CIDREIRA,CIDREIRA - RS,-30.16,-50.23,RS
297,CIPO,CIPO - BA,-11.1,-38.51,BA
1517,CIPOTANEA,CIPOTANEA - MG,-20.9,-43.36,MG
3989,CIRIACO,CIRIACO - RS,-28.34,-51.87,RS
1518,CLARAVAL,CLARAVAL - MG,-20.39,-47.26,MG
1519,CLARO DOS POCOES,CLARO DOS POCOES - MG,-17.08,-44.2,MG
2296,CLAUDIA,CLAUDIA - MT,-11.51,-54.89,MT
1520,CLAUDIO,CLAUDIO - MG,-20.44,-44.76,MG
4860,CLEMENTINA,CLEMENTINA - SP,-21.56,-50.44,SP
3243,CLEVELANDIA,CLEVELANDIA - PR,-26.39,-52.47,PR
298,COARACI,COARACI - BA,-14.64,-39.55,BA
143,COARI,COARI - AM,-4.08,-63.14,AM
3000,COCAL,COCAL - PI,-3.47,-41.55,PI
3001,COCAL DE TELHA,COCAL DE TELHA - PI,-4.55,-41.97,PI
4425,COCAL DO SUL,COCAL DO SUL - SC,-28.6,-49.32,SC
3002,COCAL DOS ALVES,COCAL DOS ALVES - PI,-3.72,-41.44,PI
2297,COCALINHO,COCALINHO - MT,-14.39,-50.99,MT
943,COCALZINHO DE GOIAS,COCALZINHO DE GOIAS - GO,-15.79,-48.77,GO
299,COCOS,COCOS - BA,-14.18,-44.53,BA
144,CODAJAS,CODAJAS - AM,-3.83,-62.05,AM
1179,CODO,CODO - MA,-4.45,-43.88,MA
1180,COELHO NETO,COELHO NETO - MA,-4.25,-43.01,MA
1521,COIMBRA,COIMBRA - MG,-20.85,-42.8,MG
43,COITE DO NOIA,COITE DO NOIA - AL,-9.63,-36.57,AL
3003,COIVARAS,COIVARAS - PI,-5.06,-42.36,PI
2431,COLARES,COLARES - PA,-0.93,-48.28,PA
820,COLATINA,COLATINA - ES,-19.53,-40.63,ES
2298,COLIDER,COLIDER - MT,-10.81,-55.45,MT
4861,COLINA,COLINA - SP,-20.71,-48.54,SP
1181,COLINAS,COLINAS - MA,-6.02,-44.24,MA
3990,COLINAS,COLINAS - RS,-29.38,-51.87,RS
944,COLINAS DO SUL,COLINAS DO SUL - GO,-14.15,-48.07,GO
5408,COLINAS DO TOCANTINS,COLINAS DO TOCANTINS - TO,-8.05,-48.47,TO
5409,COLMEIA,COLMEIA - TO,-8.72,-48.76,TO
4862,COLOMBIA,COLOMBIA - SP,-20.17,-48.68,SP
3244,COLOMBO,COLOMBO - PR,-25.29,-49.22,PR
3004,COLONIA DO GURGUEIA,COLONIA DO GURGUEIA - PI,-8.18,-43.79,PI
3005,COLONIA DO PIAUI,COLONIA DO PIAUI - PI,-7.23,-42.17,PI
44,COLONIA LEOPOLDINA,COLONIA LEOPOLDINA - AL,-8.9,-35.72,AL
3245,COLORADO,COLORADO - PR,-22.83,-51.97,PR
3991,COLORADO,COLORADO - RS,-28.52,-52.99,RS
3836,COLORADO DO OESTE,COLORADO DO OESTE - RO,-13.11,-60.54,RO
1522,COLUNA,COLUNA - MG,-18.23,-42.84,MG
5410,COMBINADO,COMBINADO - TO,-12.79,-46.53,TO
1523,COMENDADOR GOMES,COMENDADOR GOMES - MG,-19.69,-49.08,MG
3585,COMENDADOR LEVY GASPARIAN,COMENDADOR LEVY GASPARIAN - RJ,-22.02,-43.2,RJ
1524,COMERCINHO,COMERCINHO - MG,-16.29,-41.79,MG
2299,COMODORO,COMODORO - MT,-13.66,-59.78,MT
2594,CONCEICAO,CONCEICAO - PB,-7.56,-38.5,PB
1525,CONCEICAO DA APARECIDA,CONCEICAO DA APARECIDA - MG,-21.09,-46.2,MG
821,CONCEICAO DA BARRA,CONCEICAO DA BARRA - ES,-18.59,-39.73,ES
1526,CONCEICAO DA BARRA DE MINAS,CONCEICAO DA BARRA DE MINAS - MG,-21.12,-44.47,MG
300,CONCEICAO DA FEIRA,CONCEICAO DA FEIRA - BA,-12.5,-38.99,BA
1527,CONCEICAO DAS ALAGOAS,CONCEICAO DAS ALAGOAS - MG,-19.91,-48.38,MG
1528,CONCEICAO DAS PEDRAS,CONCEICAO DAS PEDRAS - MG,-22.16,-45.45,MG
1529,CONCEICAO DE IPANEMA,CONCEICAO DE IPANEMA - MG,-19.92,-41.69,MG
3586,CONCEICAO DE MACABU,CONCEICAO DE MACABU - RJ,-22.08,-41.86,RJ
301,CONCEICAO DO ALMEIDA,CONCEICAO DO ALMEIDA - BA,-12.8,-39.16,BA
2432,CONCEICAO DO ARAGUAIA,CONCEICAO DO ARAGUAIA - PA,-8.25,-49.26,PA
3006,CONCEICAO DO CANINDE,CONCEICAO DO CANINDE - PI,-7.87,-41.59,PI
822,CONCEICAO DO CASTELO,CONCEICAO DO CASTELO - ES,-20.36,-41.24,ES
302,CONCEICAO DO COITE,CONCEICAO DO COITE - BA,-11.56,-39.28,BA
303,CONCEICAO DO JACUIPE,CONCEICAO DO JACUIPE - BA,-12.42,-38.72,BA
1182,CONCEICAO DO LAGO-ACU,CONCEICAO DO LAGO-ACU - MA,-3.83,-44.89,MA
1530,CONCEICAO DO MATO DENTRO,CONCEICAO DO MATO DENTRO - MG,-19.03,-43.42,MG
1531,CONCEICAO DO PARA,CONCEICAO DO PARA - MG,-19.75,-44.89,MG
1532,CONCEICAO DO RIO VERDE,CONCEICAO DO RIO VERDE - MG,-21.88,-45.08,MG
5411,CONCEICAO DO TOCANTINS,CONCEICAO DO TOCANTINS - TO,-12.21,-47.29,TO
1533,CONCEICAO DOS OUROS,CONCEICAO DOS OUROS - MG,-22.41,-45.79,MG
4863,CONCHAL,CONCHAL - SP,-22.33,-47.17,SP
4864,CONCHAS,CONCHAS - SP,-23.01,-48.01,SP
4426,CONCORDIA,CONCORDIA - SC,-27.23,-52.02,SC
2433,CONCORDIA DO PARA,CONCORDIA DO PARA - PA,-1.99,-47.94,PA
2595,CONDADO,CONDADO - PB,-6.91,-37.6,PB
2810,CONDADO,CONDADO - PE,-7.58,-35.1,PE
304,CONDE,CONDE - BA,-11.81,-37.61,BA
2596,CONDE,CONDE - PB,-7.26,-34.9,PB
305,CONDEUBA,CONDEUBA - BA,-14.89,-41.96,BA
3992,CONDOR,CONDOR - RS,-28.2,-53.48,RS
1534,CONEGO MARINHO,CONEGO MARINHO - MG,-15.29,-44.41,MG
1535,CONFINS,CONFINS - MG,-19.63,-43.98,MG
2300,CONFRESA,CONFRESA - MT,-10.64,-51.56,MT
2597,CONGO,CONGO - PB,-7.79,-36.66,PB
1536,CONGONHAL,CONGONHAL - MG,-22.15,-46.03,MG
1537,CONGONHAS,CONGONHAS - MG,-20.5,-43.85,MG
1538,CONGONHAS DO NORTE,CONGONHAS DO NORTE - MG,-18.8,-43.68,MG
3246,CONGONHINHAS,CONGONHINHAS - PR,-23.55,-50.55,PR
1539,CONQUISTA,CONQUISTA - MG,-19.93,-47.54,MG
1540,CONSELHEIRO LAFAIETE,CONSELHEIRO LAFAIETE - MG,-20.66,-43.78,MG
3247,CONSELHEIRO MAIRINCK,CONSELHEIRO MAIRINCK - PR,-23.63,-50.16,PR
1541,CONSELHEIRO PENA,CONSELHEIRO PENA - MG,-19.17,-41.47,MG
1542,CONSOLACAO,CONSOLACAO - MG,-22.55,-45.92,MG
3993,CONSTANTINA,CONSTANTINA - RS,-27.73,-52.99,RS
1543,CONTAGEM,CONTAGEM - MG,-19.93,-44.05,MG
3248,CONTENDA,CONTENDA - PR,-25.67,-49.53,PR
306,CONTENDAS DO SINCORA,CONTENDAS DO SINCORA - BA,-13.76,-41.04,BA
1544,COQUEIRAL,COQUEIRAL - MG,-21.18,-45.44,MG
45,COQUEIRO SECO,COQUEIRO SECO - AL,-9.63,-35.8,AL
3994,COQUEIROS DO SUL,COQUEIROS DO SUL - RS,-28.11,-52.78,RS
1545,CORACAO DE JESUS,CORACAO DE JESUS - MG,-16.68,-44.36,MG
307,CORACAO DE MARIA,CORACAO DE MARIA - BA,-12.23,-38.75,BA
3249,CORBELIA,CORBELIA - PR,-24.79,-53.3,PR
3587,CORDEIRO,CORDEIRO - RJ,-22.02,-42.36,RJ
4865,CORDEIROPOLIS,CORDEIROPOLIS - SP,-22.48,-47.45,SP
308,CORDEIROS,CORDEIROS - BA,-15.03,-41.93,BA
4427,CORDILHEIRA ALTA,CORDILHEIRA ALTA - SC,-26.98,-52.6,SC
1546,CORDISBURGO,CORDISBURGO - MG,-19.12,-44.32,MG
1547,CORDISLANDIA,CORDISLANDIA - MG,-21.79,-45.7,MG
665,COREAU,COREAU - CE,-3.53,-40.65,CE
2598,COREMAS,COREMAS - PB,-7.01,-37.94,PB
2214,CORGUINHO,CORGUINHO - MS,-19.83,-54.82,MS
309,CORIBE,CORIBE - BA,-13.82,-44.45,BA
1548,CORINTO,CORINTO - MG,-18.38,-44.45,MG
3250,CORNELIO PROCOPIO,CORNELIO PROCOPIO - PR,-23.18,-50.64,PR
1549,COROACI,COROACI - MG,-18.62,-42.28,MG
4866,COROADOS,COROADOS - SP,-21.35,-50.28,SP
1183,COROATA,COROATA - MA,-4.13,-44.12,MA
1550,COROMANDEL,COROMANDEL - MG,-18.47,-47.2,MG
3995,CORONEL BARROS,CORONEL BARROS - RS,-28.38,-54.06,RS
3996,CORONEL BICACO,CORONEL BICACO - RS,-27.71,-53.7,RS
3251,CORONEL DOMINGOS SOARES,CORONEL DOMINGOS SOARES - PR,-26.22,-52.03,PR
3686,CORONEL EZEQUIEL,CORONEL EZEQUIEL - RN,-6.38,-36.21,RN
1551,CORONEL FABRICIANO,CORONEL FABRICIANO - MG,-19.51,-42.62,MG
4428,CORONEL FREITAS,CORONEL FREITAS - SC,-26.9,-52.7,SC
3687,CORONEL JOAO PESSOA,CORONEL JOAO PESSOA - RN,-6.26,-38.44,RN
310,CORONEL JOAO SA,CORONEL JOAO SA - BA,-10.28,-37.92,BA
3007,CORONEL JOSE DIAS,CORONEL JOSE DIAS - PI,-8.81,-42.51,PI
4867,CORONEL MACEDO,CORONEL MACEDO - SP,-23.63,-49.31,SP
4429,CORONEL MARTINS,CORONEL MARTINS - SC,-26.51,-52.66,SC
1552,CORONEL MURTA,CORONEL MURTA - MG,-16.61,-42.18,MG
1553,CORONEL PACHECO,CORONEL PACHECO - MG,-21.58,-43.26,MG
2215,CORONEL SAPUCAIA,CORONEL SAPUCAIA - MS,-23.27,-55.52,MS
3252,CORONEL VIVIDA,CORONEL VIVIDA - PR,-25.98,-52.56,PR
1554,CORONEL XAVIER CHAVES,CORONEL XAVIER CHAVES - MG,-21.02,-44.22,MG
1555,CORREGO DANTA,CORREGO DANTA - MG,-19.82,-45.9,MG
1556,CORREGO DO BOM JESUS,CORREGO DO BOM JESUS - MG,-22.63,-46.02,MG
945,CORREGO DO OURO,CORREGO DO OURO - GO,-16.29,-50.54,GO
1557,CORREGO FUNDO,CORREGO FUNDO - MG,-20.44,-45.55,MG
1558,CORREGO NOVO,CORREGO NOVO - MG,-19.83,-42.39,MG
4430,CORREIA PINTO,CORREIA PINTO - SC,-27.58,-50.36,SC
3008,CORRENTE,CORRENTE - PI,-10.44,-45.16,PI
2811,CORRENTES,CORRENTES - PE,-9.12,-36.33,PE
311,CORRENTINA,CORRENTINA - BA,-13.34,-44.63,BA
2812,CORTES,CORTES - PE,-8.47,-35.54,PE
2216,CORUMBA,CORUMBA - MS,-19,-57.65,MS
946,CORUMBA DE GOIAS,CORUMBA DE GOIAS - GO,-15.92,-48.8,GO
947,CORUMBAIBA,CORUMBAIBA - GO,-18.14,-48.56,GO
4868,CORUMBATAI,CORUMBATAI - SP,-22.22,-47.62,SP
3253,CORUMBATAI DO SUL,CORUMBATAI DO SUL - PR,-24.1,-52.12,PR
3837,CORUMBIARA,CORUMBIARA - RO,-12.96,-60.88,RO
4431,CORUPA,CORUPA - SC,-26.42,-49.24,SC
46,CORURIPE,CORURIPE - AL,-10.12,-36.17,AL
4869,COSMOPOLIS,COSMOPOLIS - SP,-22.64,-47.19,SP
4870,COSMORAMA,COSMORAMA - SP,-20.47,-49.77,SP
3838,COSTA MARQUES,COSTA MARQUES - RO,-12.44,-64.22,RO
2217,COSTA RICA,COSTA RICA - MS,-18.54,-53.12,MS
312,COTEGIPE,COTEGIPE - BA,-12.02,-44.25,BA
4871,COTIA,COTIA - SP,-23.6,-46.91,SP
3997,COTIPORA,COTIPORA - RS,-28.99,-51.69,RS
2301,COTRIGUACU,COTRIGUACU - MT,-9.85,-58.41,MT
5412,COUTO DE MAGALHAES,COUTO DE MAGALHAES - TO,-8.28,-49.24,TO
1559,COUTO DE MAGALHAES DE MINAS,COUTO DE MAGALHAES DE MINAS - MG,-18.07,-43.47,MG
3998,COXILHA,COXILHA - RS,-28.12,-52.29,RS
2218,COXIM,COXIM - MS,-18.5,-54.76,MS
2599,COXIXOLA,COXIXOLA - PB,-7.62,-36.6,PB
47,CRAIBAS,CRAIBAS - AL,-9.61,-36.76,AL
666,CRATEUS,CRATEUS - CE,-5.17,-40.67,CE
667,CRATO,CRATO - CE,-7.23,-39.4,CE
4872,CRAVINHOS,CRAVINHOS - SP,-21.34,-47.72,SP
313,CRAVOLANDIA,CRAVOLANDIA - BA,-13.35,-39.81,BA
4432,CRICIUMA,CRICIUMA - SC,-28.67,-49.37,SC
1560,CRISOLITA,CRISOLITA - MG,-17.23,-40.91,MG
314,CRISOPOLIS,CRISOPOLIS - BA,-11.51,-38.15,BA
3999,CRISSIUMAL,CRISSIUMAL - RS,-27.5,-54.1,RS
1561,CRISTAIS,CRISTAIS - MG,-20.87,-45.51,MG
4873,CRISTAIS PAULISTA,CRISTAIS PAULISTA - SP,-20.39,-47.42,SP
4000,CRISTAL,CRISTAL - RS,-31,-52.05,RS
4001,CRISTAL DO SUL,CRISTAL DO SUL - RS,-27.45,-53.24,RS
5413,CRISTALANDIA,CRISTALANDIA - TO,-10.6,-49.19,TO
3009,CRISTALANDIA DO PIAUI,CRISTALANDIA DO PIAUI - PI,-10.65,-45.18,PI
1562,CRISTALIA,CRISTALIA - MG,-16.8,-42.86,MG
948,CRISTALINA,CRISTALINA - GO,-16.76,-47.61,GO
1563,CRISTIANO OTONI,CRISTIANO OTONI - MG,-20.83,-43.8,MG
949,CRISTIANOPOLIS,CRISTIANOPOLIS - GO,-17.19,-48.7,GO
1564,CRISTINA,CRISTINA - MG,-22.21,-45.26,MG
4666,CRISTINAPOLIS,CRISTINAPOLIS - SE,-11.47,-37.75,SE
3010,CRISTINO CASTRO,CRISTINO CASTRO - PI,-8.81,-44.22,PI
315,CRISTOPOLIS,CRISTOPOLIS - BA,-12.23,-44.42,BA
950,CRIXAS,CRIXAS - GO,-14.54,-49.96,GO
5414,CRIXAS DO TOCANTINS,CRIXAS DO TOCANTINS - TO,-11.1,-48.91,TO
668,CROATA,CROATA - CE,-4.4,-40.91,CE
951,CROMINIA,CROMINIA - GO,-17.28,-49.38,GO
1565,CRUCILANDIA,CRUCILANDIA - MG,-20.38,-44.33,MG
669,CRUZ,CRUZ - CE,-2.91,-40.17,CE
4002,CRUZ ALTA,CRUZ ALTA - RS,-28.63,-53.6,RS
316,CRUZ DAS ALMAS,CRUZ DAS ALMAS - BA,-12.67,-39.1,BA
2600,CRUZ DO ESPIRITO SANTO,CRUZ DO ESPIRITO SANTO - PB,-7.14,-35.08,PB
3254,CRUZ MACHADO,CRUZ MACHADO - PR,-26.01,-51.34,PR
4874,CRUZALIA,CRUZALIA - SP,-22.73,-50.79,SP
4875,CRUZEIRO,CRUZEIRO - SP,-22.57,-44.96,SP
1566,CRUZEIRO DA FORTALEZA,CRUZEIRO DA FORTALEZA - MG,-18.94,-46.67,MG
3255,CRUZEIRO DO IGUACU,CRUZEIRO DO IGUACU - PR,-25.61,-53.12,PR
3256,CRUZEIRO DO OESTE,CRUZEIRO DO OESTE - PR,-23.78,-53.07,PR
6,CRUZEIRO DO SUL,CRUZEIRO DO SUL - AC,-7.63,-72.67,AC
3257,CRUZEIRO DO SUL,CRUZEIRO DO SUL - PR,-22.96,-52.16,PR
4003,CRUZEIRO DO SUL,CRUZEIRO DO SUL - RS,-29.51,-51.98,RS
3688,CRUZETA,CRUZETA - RN,-6.41,-36.79,RN
1567,CRUZILIA,CRUZILIA - MG,-21.83,-44.8,MG
3258,CRUZMALTINA,CRUZMALTINA - PR,-24.01,-51.45,PR
4876,CUBATAO,CUBATAO - SP,-23.89,-46.42,SP
2601,CUBATI,CUBATI - PB,-6.86,-36.37,PB
2302,CUIABA,CUIABA - MT,-15.59,-56.09,MT
2602,CUITE,CUITE - PB,-6.48,-36.15,PB
2603,CUITE DE MAMANGUAPE,CUITE DE MAMANGUAPE - PB,-6.91,-35.25,PB
2604,CUITEGI,CUITEGI - PB,-6.89,-35.52,PB
3839,CUJUBIM,CUJUBIM - RO,-9.36,-62.58,RO
952,CUMARI,CUMARI - GO,-18.26,-48.15,GO
2813,CUMARU,CUMARU - PE,-8,-35.69,PE
2434,CUMARU DO NORTE,CUMARU DO NORTE - PA,-7.82,-50.77,PA
4667,CUMBE,CUMBE - SE,-10.35,-37.18,SE
4877,CUNHA,CUNHA - SP,-23.07,-44.96,SP
4433,CUNHA PORA,CUNHA PORA - SC,-26.89,-53.16,SC
4434,CUNHATAI,CUNHATAI - SC,-26.96,-53.09,SC
1568,CUPARAQUE,CUPARAQUE - MG,-18.96,-41.09,MG
2814,CUPIRA,CUPIRA - PE,-8.61,-35.95,PE
317,CURACA,CURACA - BA,-8.99,-39.9,BA
3011,CURIMATA,CURIMATA - PI,-10.03,-44.3,PI
2435,CURIONOPOLIS,CURIONOPOLIS - PA,-6.09,-49.54,PA
3259,CURITIBA,CURITIBA - PR,-25.42,-49.27,PR
4435,CURITIBANOS,CURITIBANOS - SC,-27.28,-50.58,SC
3260,CURIUVA,CURIUVA - PR,-24.03,-50.45,PR
3012,CURRAIS,CURRAIS - PI,-9,-44.41,PI
3689,CURRAIS NOVOS,CURRAIS NOVOS - RN,-6.26,-36.51,RN
2605,CURRAL DE CIMA,CURRAL DE CIMA - PB,-6.71,-35.26,PB
1569,CURRAL DE DENTRO,CURRAL DE DENTRO - MG,-15.93,-41.84,MG
3013,CURRAL NOVO DO PIAUI,CURRAL NOVO DO PIAUI - PI,-7.83,-40.9,PI
2606,CURRAL VELHO,CURRAL VELHO - PB,-7.58,-38.19,PB
2436,CURRALINHO,CURRALINHO - PA,-1.81,-49.79,PA
3014,CURRALINHOS,CURRALINHOS - PI,-5.58,-42.77,PI
2437,CURUA,CURUA - PA,-1.88,-55.11,PA
2438,CURUCA,CURUCA - PA,-0.73,-47.85,PA
1184,CURURUPU,CURURUPU - MA,-1.82,-44.86,MA
1570,CURVELO,CURVELO - MG,-18.75,-44.43,MG
2815,CUSTODIA,CUSTODIA - PE,-8.08,-37.64,PE
188,CUTIAS,CUTIAS - AP,0.98,-50.8,AP
953,DAMIANOPOLIS,DAMIANOPOLIS - GO,-14.56,-46.17,GO
2607,DAMIAO,DAMIAO - PB,-6.55,-35.89,PB
954,DAMOLANDIA,DAMOLANDIA - GO,-16.25,-49.37,GO
5415,DARCINOPOLIS,DARCINOPOLIS - TO,-6.71,-47.76,TO
318,DARIO MEIRA,DARIO MEIRA - BA,-14.43,-39.9,BA
1571,DATAS,DATAS - MG,-18.44,-43.65,MG
4004,DAVID CANABARRO,DAVID CANABARRO - RS,-28.38,-51.84,RS
955,DAVINOPOLIS,DAVINOPOLIS - GO,-18.15,-47.56,GO
1185,DAVINOPOLIS,DAVINOPOLIS - MA,-5.55,-47.42,MA
1572,DELFIM MOREIRA,DELFIM MOREIRA - MG,-22.5,-45.28,MG
1573,DELFINOPOLIS,DELFINOPOLIS - MG,-20.34,-46.85,MG
48,DELMIRO GOUVEIA,DELMIRO GOUVEIA - AL,-9.38,-37.99,AL
1574,DELTA,DELTA - MG,-19.97,-47.77,MG
3015,DEMERVAL LOBAO,DEMERVAL LOBAO - PI,-5.35,-42.67,PI
2303,DENISE,DENISE - MT,-14.74,-57.05,MT
2219,DEODAPOLIS,DEODAPOLIS - MS,-22.27,-54.16,MS
670,DEPUTADO IRAPUAN PINHEIRO,DEPUTADO IRAPUAN PINHEIRO - CE,-5.91,-39.26,CE
4005,DERRUBADAS,DERRUBADAS - RS,-27.26,-53.86,RS
4878,DESCALVADO,DESCALVADO - SP,-21.9,-47.61,SP
4436,DESCANSO,DESCANSO - SC,-26.82,-53.5,SC
1575,DESCOBERTO,DESCOBERTO - MG,-21.46,-42.96,MG
2608,DESTERRO,DESTERRO - PB,-7.29,-37.09,PB
1576,DESTERRO DE ENTRE RIOS,DESTERRO DE ENTRE RIOS - MG,-20.66,-44.33,MG
1577,DESTERRO DO MELO,DESTERRO DO MELO - MG,-21.14,-43.51,MG
4006,DEZESSEIS DE NOVEMBRO,DEZESSEIS DE NOVEMBRO - RS,-28.21,-55.06,RS
4879,DIADEMA,DIADEMA - SP,-23.68,-46.62,SP
2609,DIAMANTE,DIAMANTE - PB,-7.42,-38.26,PB
3261,DIAMANTE DO NORTE,DIAMANTE DO NORTE - PR,-22.65,-52.86,PR
3262,DIAMANTE DO SUL,DIAMANTE DO SUL - PR,-25.04,-52.68,PR
3263,DIAMANTE D'OESTE,DIAMANTE D'OESTE - PR,-24.94,-54.1,PR
1578,DIAMANTINA,DIAMANTINA - MG,-18.24,-43.6,MG
2304,DIAMANTINO,DIAMANTINO - MT,-14.4,-56.44,MT
5416,DIANOPOLIS,DIANOPOLIS - TO,-11.62,-46.82,TO
319,DIAS D'AVILA,DIAS D'AVILA - BA,-12.61,-38.29,BA
4007,DILERMANDO DE AGUIAR,DILERMANDO DE AGUIAR - RS,-29.7,-54.2,RS
1579,DIOGO DE VASCONCELOS,DIOGO DE VASCONCELOS - MG,-20.48,-43.19,MG
1580,DIONISIO,DIONISIO - MG,-19.84,-42.77,MG
4437,DIONISIO CERQUEIRA,DIONISIO CERQUEIRA - SC,-26.25,-53.64,SC
956,DIORAMA,DIORAMA - GO,-16.23,-51.25,GO
4880,DIRCE REIS,DIRCE REIS - SP,-20.46,-50.6,SP
3016,DIRCEU ARCOVERDE,DIRCEU ARCOVERDE - PI,-9.33,-42.42,PI
4668,DIVINA PASTORA,DIVINA PASTORA - SE,-10.68,-37.14,SE
1581,DIVINESIA,DIVINESIA - MG,-20.99,-43,MG
1582,DIVINO,DIVINO - MG,-20.61,-42.14,MG
1583,DIVINO DAS LARANJEIRAS,DIVINO DAS LARANJEIRAS - MG,-18.77,-41.48,MG
823,DIVINO DE SAO LOURENCO,DIVINO DE SAO LOURENCO - ES,-20.62,-41.68,ES
4881,DIVINOLANDIA,DIVINOLANDIA - SP,-21.66,-46.73,SP
1584,DIVINOLANDIA DE MINAS,DIVINOLANDIA DE MINAS - MG,-18.8,-42.59,MG
1585,DIVINOPOLIS,DIVINOPOLIS - MG,-20.13,-44.88,MG
957,DIVINOPOLIS DE GOIAS,DIVINOPOLIS DE GOIAS - GO,-13.29,-46.39,GO
5417,DIVINOPOLIS DO TOCANTINS,DIVINOPOLIS DO TOCANTINS - TO,-9.8,-49.21,TO
1586,DIVISA ALEGRE,DIVISA ALEGRE - MG,-15.72,-41.34,MG
1587,DIVISA NOVA,DIVISA NOVA - MG,-21.51,-46.19,MG
1588,DIVISOPOLIS,DIVISOPOLIS - MG,-15.72,-41,MG
4882,DOBRADA,DOBRADA - SP,-21.51,-48.39,SP
4883,DOIS CORREGOS,DOIS CORREGOS - SP,-22.36,-48.38,SP
4008,DOIS IRMAOS,DOIS IRMAOS - RS,-29.58,-51.08,RS
4009,DOIS IRMAOS DAS MISSOES,DOIS IRMAOS DAS MISSOES - RS,-27.65,-53.53,RS
2220,DOIS IRMAOS DO BURITI,DOIS IRMAOS DO BURITI - MS,-20.68,-55.29,MS
5418,DOIS IRMAOS DO TOCANTINS,DOIS IRMAOS DO TOCANTINS - TO,-9.25,-49.06,TO
4010,DOIS LAJEADOS,DOIS LAJEADOS - RS,-28.98,-51.83,RS
49,DOIS RIACHOS,DOIS RIACHOS - AL,-9.39,-37.1,AL
3264,DOIS VIZINHOS,DOIS VIZINHOS - PR,-25.73,-53.05,PR
4884,DOLCINOPOLIS,DOLCINOPOLIS - SP,-20.12,-50.51,SP
2305,DOM AQUINO,DOM AQUINO - MT,-15.81,-54.91,MT
320,DOM BASILIO,DOM BASILIO - BA,-13.76,-41.77,BA
1589,DOM BOSCO,DOM BOSCO - MG,-16.65,-46.27,MG
1590,DOM CAVATI,DOM CAVATI - MG,-19.37,-42.1,MG
2439,DOM ELISEU,DOM ELISEU - PA,-4.28,-47.5,PA
3017,DOM EXPEDITO LOPES,DOM EXPEDITO LOPES - PI,-6.95,-41.64,PI
4011,DOM FELICIANO,DOM FELICIANO - RS,-30.7,-52.1,RS
3018,DOM INOCENCIO,DOM INOCENCIO - PI,-9,-41.97,PI
1591,DOM JOAQUIM,DOM JOAQUIM - MG,-18.96,-43.25,MG
321,DOM MACEDO COSTA,DOM MACEDO COSTA - BA,-12.9,-39.19,BA
4012,DOM PEDRITO,DOM PEDRITO - RS,-30.98,-54.67,RS
1186,DOM PEDRO,DOM PEDRO - MA,-5.03,-44.43,MA
4013,DOM PEDRO DE ALCANTARA,DOM PEDRO DE ALCANTARA - RS,-29.36,-49.85,RS
1592,DOM SILVERIO,DOM SILVERIO - MG,-20.16,-42.96,MG
1593,DOM VICOSO,DOM VICOSO - MG,-22.25,-45.16,MG
824,DOMINGOS MARTINS,DOMINGOS MARTINS - ES,-20.36,-40.65,ES
3019,DOMINGOS MOURAO,DOMINGOS MOURAO - PI,-4.25,-41.27,PI
4438,DONA EMMA,DONA EMMA - SC,-26.98,-49.72,SC
1594,DONA EUZEBIA,DONA EUZEBIA - MG,-21.31,-42.81,MG
4014,DONA FRANCISCA,DONA FRANCISCA - RS,-29.62,-53.35,RS
2610,DONA INES,DONA INES - PB,-6.61,-35.63,PB
1595,DORES DE CAMPOS,DORES DE CAMPOS - MG,-21.1,-44.02,MG
1596,DORES DE GUANHAES,DORES DE GUANHAES - MG,-19.05,-42.92,MG
1597,DORES DO INDAIA,DORES DO INDAIA - MG,-19.46,-45.6,MG
825,DORES DO RIO PRETO,DORES DO RIO PRETO - ES,-20.68,-41.84,ES
1598,DORES DO TURVO,DORES DO TURVO - MG,-20.97,-43.18,MG
1599,DORESOPOLIS,DORESOPOLIS - MG,-20.28,-45.9,MG
2816,DORMENTES,DORMENTES - PE,-8.44,-40.77,PE
2221,DOURADINA,DOURADINA - MS,-22.04,-54.61,MS
3265,DOURADINA,DOURADINA - PR,-23.38,-53.29,PR
4885,DOURADO,DOURADO - SP,-22.1,-48.31,SP
1600,DOURADOQUARA,DOURADOQUARA - MG,-18.43,-47.6,MG
2222,DOURADOS,DOURADOS - MS,-22.22,-54.8,MS
3266,DOUTOR CAMARGO,DOUTOR CAMARGO - PR,-23.55,-52.21,PR
4015,DOUTOR MAURICIO CARDOSO,DOUTOR MAURICIO CARDOSO - RS,-27.5,-54.36,RS
4439,DOUTOR PEDRINHO,DOUTOR PEDRINHO - SC,-26.71,-49.48,SC
4016,DOUTOR RICARDO,DOUTOR RICARDO - RS,-29.08,-51.99,RS
3690,DOUTOR SEVERIANO,DOUTOR SEVERIANO - RN,-6.09,-38.37,RN
3267,DOUTOR ULYSSES,DOUTOR ULYSSES - PR,-24.56,-49.42,PR
958,DOVERLANDIA,DOVERLANDIA - GO,-16.72,-52.31,GO
4886,DRACENA,DRACENA - SP,-21.48,-51.53,SP
4887,DUARTINA,DUARTINA - SP,-22.41,-49.4,SP
3588,DUAS BARRAS,DUAS BARRAS - RJ,-22.05,-42.52,RJ
2611,DUAS ESTRADAS,DUAS ESTRADAS - PB,-6.68,-35.41,PB
5419,DUERE,DUERE - TO,-11.34,-49.27,TO
4888,DUMONT,DUMONT - SP,-21.23,-47.97,SP
1187,DUQUE BACELAR,DUQUE BACELAR - MA,-4.15,-42.94,MA
3589,DUQUE DE CAXIAS,DUQUE DE CAXIAS - RJ,-22.78,-43.31,RJ
1601,DURANDE,DURANDE - MG,-20.2,-41.79,MG
4889,ECHAPORA,ECHAPORA - SP,-22.42,-50.2,SP
826,ECOPORANGA,ECOPORANGA - ES,-18.37,-40.83,ES
959,EDEALINA,EDEALINA - GO,-17.42,-49.66,GO
960,EDEIA,EDEIA - GO,-17.33,-49.93,GO
145,EIRUNEPE,EIRUNEPE - AM,-6.66,-69.87,AM
2223,ELDORADO,ELDORADO - MS,-23.78,-54.28,MS
4890,ELDORADO,ELDORADO - SP,-24.52,-48.1,SP
4017,ELDORADO DO SUL,ELDORADO DO SUL - RS,-30.08,-51.61,RS
2440,ELDORADO DOS CARAJAS,ELDORADO DOS CARAJAS - PA,-6.1,-49.35,PA
3020,ELESBAO VELOSO,ELESBAO VELOSO - PI,-6.2,-42.14,PI
4891,ELIAS FAUSTO,ELIAS FAUSTO - SP,-23.04,-47.37,SP
3021,ELISEU MARTINS,ELISEU MARTINS - PI,-8.09,-43.66,PI
4892,ELISIARIO,ELISIARIO - SP,-21.16,-49.11,SP
322,ELISIO MEDRADO,ELISIO MEDRADO - BA,-12.94,-39.52,BA
1602,ELOI MENDES,ELOI MENDES - MG,-21.61,-45.56,MG
2612,EMAS,EMAS - PB,-7.1,-37.71,PB
4893,EMBAUBA,EMBAUBA - SP,-20.98,-48.83,SP
4894,EMBU,EMBU - SP,-23.64,-46.85,SP
4895,EMBU-GUACU,EMBU-GUACU - SP,-23.83,-46.81,SP
4896,EMILIANOPOLIS,EMILIANOPOLIS - SP,-21.83,-51.48,SP
4018,ENCANTADO,ENCANTADO - RS,-29.23,-51.87,RS
3691,ENCANTO,ENCANTO - RN,-6.11,-38.3,RN
323,ENCRUZILHADA,ENCRUZILHADA - BA,-15.53,-40.9,BA
4019,ENCRUZILHADA DO SUL,ENCRUZILHADA DO SUL - RS,-30.54,-52.52,RS
3268,ENEAS MARQUES,ENEAS MARQUES - PR,-25.94,-53.16,PR
3269,ENGENHEIRO BELTRAO,ENGENHEIRO BELTRAO - PR,-23.79,-52.26,PR
1603,ENGENHEIRO CALDAS,ENGENHEIRO CALDAS - MG,-19.21,-42.04,MG
4897,ENGENHEIRO COELHO,ENGENHEIRO COELHO - SP,-22.48,-47.21,SP
1604,ENGENHEIRO NAVARRO,ENGENHEIRO NAVARRO - MG,-17.28,-43.95,MG
3590,ENGENHEIRO PAULO DE FRONTIN,ENGENHEIRO PAULO DE FRONTIN - RJ,-22.55,-43.67,RJ
4020,ENGENHO VELHO,ENGENHO VELHO - RS,-27.7,-52.91,RS
1605,ENTRE FOLHAS,ENTRE FOLHAS - MG,-19.62,-42.23,MG
324,ENTRE RIOS,ENTRE RIOS - BA,-11.94,-38.08,BA
4440,ENTRE RIOS,ENTRE RIOS - SC,-26.72,-52.56,SC
1606,ENTRE RIOS DE MINAS,ENTRE RIOS DE MINAS - MG,-20.67,-44.06,MG
3270,ENTRE RIOS DO OESTE,ENTRE RIOS DO OESTE - PR,-24.7,-54.23,PR
4021,ENTRE RIOS DO SUL,ENTRE RIOS DO SUL - RS,-27.52,-52.73,RS
4022,ENTRE-IJUIS,ENTRE-IJUIS - RS,-28.36,-54.26,RS
146,ENVIRA,ENVIRA - AM,-7.43,-70.02,AM
7,EPITACIOLANDIA,EPITACIOLANDIA - AC,-11.02,-68.74,AC
3692,EQUADOR,EQUADOR - RN,-6.94,-36.71,RN
4023,EREBANGO,EREBANGO - RS,-27.85,-52.3,RS
4024,ERECHIM,ERECHIM - RS,-27.63,-52.27,RS
671,ERERE,ERERE - CE,-6.03,-38.34,CE
325,ERICO CARDOSO,ERICO CARDOSO - BA,-13.41,-42.14,BA
4441,ERMO,ERMO - SC,-28.98,-49.64,SC
4025,ERNESTINA,ERNESTINA - RS,-28.49,-52.57,RS
4026,ERVAL GRANDE,ERVAL GRANDE - RS,-27.39,-52.57,RS
4027,ERVAL SECO,ERVAL SECO - RS,-27.54,-53.5,RS
4442,ERVAL VELHO,ERVAL VELHO - SC,-27.27,-51.44,SC
1607,ERVALIA,ERVALIA - MG,-20.84,-42.65,MG
2817,ESCADA,ESCADA - PE,-8.35,-35.22,PE
4028,ESMERALDA,ESMERALDA - RS,-28.05,-51.19,RS
1608,ESMERALDAS,ESMERALDAS - MG,-19.76,-44.31,MG
1609,ESPERA FELIZ,ESPERA FELIZ - MG,-20.65,-41.9,MG
2613,ESPERANCA,ESPERANCA - PB,-7.02,-35.86,PB
4029,ESPERANCA DO SUL,ESPERANCA DO SUL - RS,-27.35,-53.99,RS
3271,ESPERANCA NOVA,ESPERANCA NOVA - PR,-23.72,-53.81,PR
3022,ESPERANTINA,ESPERANTINA - PI,-3.9,-42.23,PI
5420,ESPERANTINA,ESPERANTINA - TO,-5.34,-48.51,TO
1188,ESPERANTINOPOLIS,ESPERANTINOPOLIS - MA,-4.88,-44.68,MA
3272,ESPIGAO ALTO DO IGUACU,ESPIGAO ALTO DO IGUACU - PR,-25.42,-52.83,PR
3840,ESPIGAO D'OESTE,ESPIGAO D'OESTE - RO,-11.52,-61.01,RO
1610,ESPINOSA,ESPINOSA - MG,-14.92,-42.81,MG
3693,ESPIRITO SANTO,ESPIRITO SANTO - RN,-6.33,-35.3,RN
1611,ESPIRITO SANTO DO DOURADO,ESPIRITO SANTO DO DOURADO - MG,-22.04,-45.95,MG
4898,ESPIRITO SANTO DO PINHAL,ESPIRITO SANTO DO PINHAL - SP,-22.19,-46.74,SP
4899,ESPIRITO SANTO DO TURVO,ESPIRITO SANTO DO TURVO - SP,-22.69,-49.43,SP
326,ESPLANADA,ESPLANADA - BA,-11.79,-37.94,BA
4030,ESPUMOSO,ESPUMOSO - RS,-28.72,-52.85,RS
4031,ESTACAO,ESTACAO - RS,-27.91,-52.26,RS
4669,ESTANCIA,ESTANCIA - SE,-11.26,-37.43,SE
4032,ESTANCIA VELHA,ESTANCIA VELHA - RS,-29.64,-51.17,RS
4033,ESTEIO,ESTEIO - RS,-29.86,-51.17,RS
1612,ESTIVA,ESTIVA - MG,-22.46,-46.01,MG
4900,ESTIVA GERBI,ESTIVA GERBI - SP,-22.27,-46.94,SP
1189,ESTREITO,ESTREITO - MA,-6.56,-47.45,MA
4034,ESTRELA,ESTRELA - RS,-29.5,-51.96,RS
1613,ESTRELA DALVA,ESTRELA DALVA - MG,-21.74,-42.46,MG
50,ESTRELA DE ALAGOAS,ESTRELA DE ALAGOAS - AL,-9.39,-36.76,AL
1614,ESTRELA DO INDAIA,ESTRELA DO INDAIA - MG,-19.52,-45.78,MG
961,ESTRELA DO NORTE,ESTRELA DO NORTE - GO,-13.86,-49.07,GO
4901,ESTRELA DO NORTE,ESTRELA DO NORTE - SP,-22.48,-51.66,SP
1615,ESTRELA DO SUL,ESTRELA DO SUL - MG,-18.74,-47.69,MG
4902,ESTRELA D'OESTE,ESTRELA D'OESTE - SP,-20.28,-50.4,SP
4035,ESTRELA VELHA,ESTRELA VELHA - RS,-29.17,-53.15,RS
327,EUCLIDES DA CUNHA,EUCLIDES DA CUNHA - BA,-10.5,-39.01,BA
4903,EUCLIDES DA CUNHA PAULISTA,EUCLIDES DA CUNHA PAULISTA - SP,-22.56,-52.59,SP
4036,EUGENIO DE CASTRO,EUGENIO DE CASTRO - RS,-28.52,-54.14,RS
1616,EUGENOPOLIS,EUGENOPOLIS - MG,-21.09,-42.18,MG
328,EUNAPOLIS,EUNAPOLIS - BA,-16.37,-39.58,BA
672,EUSEBIO,EUSEBIO - CE,-3.89,-38.45,CE
1617,EWBANK DA CAMARA,EWBANK DA CAMARA - MG,-21.55,-43.51,MG
1618,EXTREMA,EXTREMA - MG,-22.85,-46.31,MG
3694,EXTREMOZ,EXTREMOZ - RN,-5.7,-35.3,RN
2818,EXU,EXU - PE,-7.51,-39.72,PE
2614,FAGUNDES,FAGUNDES - PB,-7.35,-35.77,PB
4037,FAGUNDES VARELA,FAGUNDES VARELA - RS,-28.88,-51.69,RS
962,FAINA,FAINA - GO,-15.44,-50.36,GO
1619,FAMA,FAMA - MG,-21.4,-45.82,MG
1620,FARIA LEMOS,FARIA LEMOS - MG,-20.8,-42.03,MG
673,FARIAS BRITO,FARIAS BRITO - CE,-6.93,-39.56,CE
2441,FARO,FARO - PA,-2.17,-56.74,PA
3273,FAROL,FAROL - PR,-24.1,-52.62,PR
4038,FARROUPILHA,FARROUPILHA - RS,-29.22,-51.34,RS
4904,FARTURA,FARTURA - SP,-23.38,-49.51,SP
3023,FARTURA DO PIAUI,FARTURA DO PIAUI - PI,-9.48,-42.79,PI
329,FATIMA,FATIMA - BA,-10.6,-38.21,BA
5421,FATIMA,FATIMA - TO,-10.76,-48.9,TO
2224,FATIMA DO SUL,FATIMA DO SUL - MS,-22.37,-54.51,MS
3274,FAXINAL,FAXINAL - PR,-24,-51.32,PR
4039,FAXINAL DO SOTURNO,FAXINAL DO SOTURNO - RS,-29.57,-53.44,RS
4443,FAXINAL DOS GUEDES,FAXINAL DOS GUEDES - SC,-26.85,-52.26,SC
4040,FAXINALZINHO,FAXINALZINHO - RS,-27.42,-52.67,RS
963,FAZENDA NOVA,FAZENDA NOVA - GO,-16.18,-50.78,GO
3275,FAZENDA RIO GRANDE,FAZENDA RIO GRANDE - PR,-25.65,-49.3,PR
4041,FAZENDA VILANOVA,FAZENDA VILANOVA - RS,-29.58,-51.82,RS
8,FEIJO,FEIJO - AC,-8.16,-70.35,AC
330,FEIRA DA MATA,FEIRA DA MATA - BA,-14.2,-44.28,BA
331,FEIRA DE SANTANA,FEIRA DE SANTANA - BA,-12.26,-38.96,BA
51,FEIRA GRANDE,FEIRA GRANDE - AL,-9.9,-36.67,AL
2819,FEIRA NOVA,FEIRA NOVA - PE,-7.95,-35.38,PE
4670,FEIRA NOVA,FEIRA NOVA - SE,-10.26,-37.31,SE
1190,FEIRA NOVA DO MARANHAO,FEIRA NOVA DO MARANHAO - MA,-6.96,-46.68,MA
1621,FELICIO DOS SANTOS,FELICIO DOS SANTOS - MG,-18.07,-43.24,MG
3695,FELIPE GUERRA,FELIPE GUERRA - RN,-5.6,-37.68,RN
1622,FELISBURGO,FELISBURGO - MG,-16.63,-40.76,MG
1623,FELIXLANDIA,FELIXLANDIA - MG,-18.75,-44.89,MG
4042,FELIZ,FELIZ - RS,-29.45,-51.3,RS
52,FELIZ DESERTO,FELIZ DESERTO - AL,-10.29,-36.3,AL
2306,FELIZ NATAL,FELIZ NATAL - MT,-12.38,-54.92,MT
3276,FENIX,FENIX - PR,-23.91,-51.97,PR
3277,FERNANDES PINHEIRO,FERNANDES PINHEIRO - PR,-25.41,-50.54,PR
1624,FERNANDES TOURINHO,FERNANDES TOURINHO - MG,-19.15,-42.08,MG
2820,FERNANDO DE NORONHA,FERNANDO DE NORONHA - PE,-3.84,-32.41,PE
1191,FERNANDO FALCAO,FERNANDO FALCAO - MA,-6.15,-44.89,MA
3696,FERNANDO PEDROZA,FERNANDO PEDROZA - RN,-5.69,-36.53,RN
4905,FERNANDO PRESTES,FERNANDO PRESTES - SP,-21.26,-48.68,SP
4906,FERNANDOPOLIS,FERNANDOPOLIS - SP,-20.28,-50.24,SP
4907,FERNAO,FERNAO - SP,-22.35,-49.52,SP
4908,FERRAZ DE VASCONCELOS,FERRAZ DE VASCONCELOS - SP,-23.54,-46.36,SP
189,FERREIRA GOMES,FERREIRA GOMES - AP,0.85,-51.18,AP
2821,FERREIROS,FERREIROS - PE,-7.44,-35.24,PE
1625,FERROS,FERROS - MG,-19.23,-43.02,MG
1626,FERVEDOURO,FERVEDOURO - MG,-20.72,-42.27,MG
3278,FIGUEIRA,FIGUEIRA - PR,-23.84,-50.4,PR
5422,FIGUEIROPOLIS,FIGUEIROPOLIS - TO,-12.13,-49.17,TO
2307,FIGUEIROPOLIS D'OESTE,FIGUEIROPOLIS D'OESTE - MT,-15.44,-58.74,MT
332,FILADELFIA,FILADELFIA - BA,-10.74,-40.13,BA
5423,FILADELFIA,FILADELFIA - TO,-7.33,-47.49,TO
333,FIRMINO ALVES,FIRMINO ALVES - BA,-14.98,-39.92,BA
964,FIRMINOPOLIS,FIRMINOPOLIS - GO,-16.58,-50.3,GO
53,FLEXEIRAS,FLEXEIRAS - AL,-9.27,-35.71,AL
3279,FLOR DA SERRA DO SUL,FLOR DA SERRA DO SUL - PR,-26.26,-53.3,PR
4444,FLOR DO SERTAO,FLOR DO SERTAO - SC,-26.77,-53.34,SC
4909,FLORA RICA,FLORA RICA - SP,-21.67,-51.38,SP
3280,FLORAI,FLORAI - PR,-23.31,-52.3,PR
3697,FLORANIA,FLORANIA - RN,-6.12,-36.81,RN
4910,FLOREAL,FLOREAL - SP,-20.67,-50.14,SP
2822,FLORES,FLORES - PE,-7.86,-37.97,PE
4043,FLORES DA CUNHA,FLORES DA CUNHA - RS,-29.02,-51.18,RS
965,FLORES DE GOIAS,FLORES DE GOIAS - GO,-14.44,-47.05,GO
3024,FLORES DO PIAUI,FLORES DO PIAUI - PI,-7.79,-42.92,PI
2823,FLORESTA,FLORESTA - PE,-8.6,-38.56,PE
3281,FLORESTA,FLORESTA - PR,-23.59,-52.08,PR
334,FLORESTA AZUL,FLORESTA AZUL - BA,-14.86,-39.66,BA
2442,FLORESTA DO ARAGUAIA,FLORESTA DO ARAGUAIA - PA,-7.55,-49.71,PA
3025,FLORESTA DO PIAUI,FLORESTA DO PIAUI - PI,-7.46,-41.79,PI
1627,FLORESTAL,FLORESTAL - MG,-19.88,-44.43,MG
3282,FLORESTOPOLIS,FLORESTOPOLIS - PR,-22.86,-51.38,PR
3026,FLORIANO,FLORIANO - PI,-6.76,-43.02,PI
4044,FLORIANO PEIXOTO,FLORIANO PEIXOTO - RS,-27.86,-52.08,RS
4445,FLORIANOPOLIS,FLORIANOPOLIS - SC,-27.59,-48.54,SC
3283,FLORIDA,FLORIDA - PR,-23.08,-51.95,PR
4911,FLORIDA PAULISTA,FLORIDA PAULISTA - SP,-21.61,-51.17,SP
4912,FLORINIA,FLORINIA - SP,-22.9,-50.73,SP
147,FONTE BOA,FONTE BOA - AM,-2.51,-66.09,AM
4045,FONTOURA XAVIER,FONTOURA XAVIER - RS,-28.98,-52.34,RS
1628,FORMIGA,FORMIGA - MG,-20.46,-45.42,MG
4046,FORMIGUEIRO,FORMIGUEIRO - RS,-30,-53.49,RS
966,FORMOSA,FORMOSA - GO,-15.53,-47.33,GO
1192,FORMOSA DA SERRA NEGRA,FORMOSA DA SERRA NEGRA - MA,-6.43,-46.19,MA
3284,FORMOSA DO OESTE,FORMOSA DO OESTE - PR,-24.29,-53.31,PR
335,FORMOSA DO RIO PRETO,FORMOSA DO RIO PRETO - BA,-11.04,-45.19,BA
4446,FORMOSA DO SUL,FORMOSA DO SUL - SC,-26.64,-52.79,SC
967,FORMOSO,FORMOSO - GO,-13.65,-48.88,GO
1629,FORMOSO,FORMOSO - MG,-14.94,-46.23,MG
5424,FORMOSO DO ARAGUAIA,FORMOSO DO ARAGUAIA - TO,-11.79,-49.52,TO
674,FORQUILHA,FORQUILHA - CE,-3.79,-40.26,CE
4447,FORQUILHINHA,FORQUILHINHA - SC,-28.74,-49.47,SC
675,FORTALEZA,FORTALEZA - CE,-3.71,-38.54,CE
1630,FORTALEZA DE MINAS,FORTALEZA DE MINAS - MG,-20.84,-46.71,MG
5425,FORTALEZA DO TABOCAO,FORTALEZA DO TABOCAO - TO,-9.05,-48.51,TO
1193,FORTALEZA DOS NOGUEIRAS,FORTALEZA DOS NOGUEIRAS - MA,-6.96,-46.17,MA
4047,FORTALEZA DOS VALOS,FORTALEZA DOS VALOS - RS,-28.79,-53.22,RS
676,FORTIM,FORTIM - CE,-4.45,-37.79,CE
1194,FORTUNA,FORTUNA - MA,-5.73,-44.15,MA
1631,FORTUNA DE MINAS,FORTUNA DE MINAS - MG,-19.56,-44.44,MG
3285,FOZ DO IGUACU,FOZ DO IGUACU - PR,-25.54,-54.58,PR
3286,FOZ DO JORDAO,FOZ DO JORDAO - PR,-25.64,-52.1,PR
4448,FRAIBURGO,FRAIBURGO - SC,-27.02,-50.92,SC
4913,FRANCA,FRANCA - SP,-20.53,-47.4,SP
3027,FRANCINOPOLIS,FRANCINOPOLIS - PI,-6.39,-42.26,PI
3287,FRANCISCO ALVES,FRANCISCO ALVES - PR,-24.06,-53.84,PR
3028,FRANCISCO AYRES,FRANCISCO AYRES - PI,-6.62,-42.69,PI
1632,FRANCISCO BADARO,FRANCISCO BADARO - MG,-16.99,-42.35,MG
3288,FRANCISCO BELTRAO,FRANCISCO BELTRAO - PR,-26.08,-53.05,PR
3698,FRANCISCO DANTAS,FRANCISCO DANTAS - RN,-6.07,-38.11,RN
1633,FRANCISCO DUMONT,FRANCISCO DUMONT - MG,-17.31,-44.23,MG
3029,FRANCISCO MACEDO,FRANCISCO MACEDO - PI,-7.33,-40.78,PI
4914,FRANCISCO MORATO,FRANCISCO MORATO - SP,-23.28,-46.74,SP
1634,FRANCISCO SA,FRANCISCO SA - MG,-16.47,-43.48,MG
3030,FRANCISCO SANTOS,FRANCISCO SANTOS - PI,-6.99,-41.13,PI
1635,FRANCISCOPOLIS,FRANCISCOPOLIS - MG,-17.96,-42,MG
4915,FRANCO DA ROCHA,FRANCO DA ROCHA - SP,-23.32,-46.72,SP
677,FRECHEIRINHA,FRECHEIRINHA - CE,-3.76,-40.81,CE
4048,FREDERICO WESTPHALEN,FREDERICO WESTPHALEN - RS,-27.35,-53.39,RS
1636,FREI GASPAR,FREI GASPAR - MG,-18.06,-41.42,MG
1637,FREI INOCENCIO,FREI INOCENCIO - MG,-18.54,-41.92,MG
1638,FREI LAGONEGRO,FREI LAGONEGRO - MG,-18.16,-42.76,MG
2615,FREI MARTINHO,FREI MARTINHO - PB,-6.4,-36.45,PB
2824,FREI MIGUELINHO,FREI MIGUELINHO - PE,-7.94,-35.91,PE
4671,FREI PAULO,FREI PAULO - SE,-10.54,-37.53,SE
4449,FREI ROGERIO,FREI ROGERIO - SC,-27.17,-50.8,SC
1639,FRONTEIRA,FRONTEIRA - MG,-20.26,-49.19,MG
1640,FRONTEIRA DOS VALES,FRONTEIRA DOS VALES - MG,-16.89,-40.92,MG
3031,FRONTEIRAS,FRONTEIRAS - PI,-7.08,-40.61,PI
1641,FRUTA DE LEITE,FRUTA DE LEITE - MG,-16.13,-42.53,MG
1642,FRUTAL,FRUTAL - MG,-20.02,-48.94,MG
3699,FRUTUOSO GOMES,FRUTUOSO GOMES - RN,-6.15,-37.84,RN
827,FUNDAO,FUNDAO - ES,-19.93,-40.4,ES
1643,FUNILANDIA,FUNILANDIA - MG,-19.36,-44.05,MG
4916,GABRIEL MONTEIRO,GABRIEL MONTEIRO - SP,-21.53,-50.55,SP
2616,GADO BRAVO,GADO BRAVO - PB,-7.58,-35.79,PB
4917,GALIA,GALIA - SP,-22.29,-49.55,SP
1644,GALILEIA,GALILEIA - MG,-18.99,-41.53,MG
3700,GALINHOS,GALINHOS - RN,-5.09,-36.27,RN
4450,GALVAO,GALVAO - SC,-26.45,-52.68,SC
2825,GAMELEIRA,GAMELEIRA - PE,-8.58,-35.38,PE
1645,GAMELEIRAS,GAMELEIRAS - MG,-15.08,-43.12,MG
336,GANDU,GANDU - BA,-13.74,-39.48,BA
2826,GARANHUNS,GARANHUNS - PE,-8.89,-36.49,PE
4672,GARARU,GARARU - SE,-9.96,-37.08,SE
4918,GARCA,GARCA - SP,-22.21,-49.65,SP
4049,GARIBALDI,GARIBALDI - RS,-29.25,-51.53,RS
4451,GAROPABA,GAROPABA - SC,-28.02,-48.61,SC
2443,GARRAFAO DO NORTE,GARRAFAO DO NORTE - PA,-1.93,-47.05,PA
4050,GARRUCHOS,GARRUCHOS - RS,-28.18,-55.63,RS
4452,GARUVA,GARUVA - SC,-26.02,-48.85,SC
4453,GASPAR,GASPAR - SC,-26.93,-48.95,SC
4919,GASTAO VIDIGAL,GASTAO VIDIGAL - SP,-20.79,-50.18,SP
2308,GAUCHA DO NORTE,GAUCHA DO NORTE - MT,-13.24,-53.08,MT
4051,GAURAMA,GAURAMA - RS,-27.58,-52.09,RS
337,GAVIAO,GAVIAO - BA,-11.47,-39.78,BA
4920,GAVIAO PEIXOTO,GAVIAO PEIXOTO - SP,-21.83,-48.49,SP
3032,GEMINIANO,GEMINIANO - PI,-7.15,-41.36,PI
4052,GENERAL CAMARA,GENERAL CAMARA - RS,-29.9,-51.76,RS
2309,GENERAL CARNEIRO,GENERAL CARNEIRO - MT,-15.71,-52.75,MT
3289,GENERAL CARNEIRO,GENERAL CARNEIRO - PR,-26.42,-51.31,PR
4673,GENERAL MAYNARD,GENERAL MAYNARD - SE,-10.68,-36.98,SE
4921,GENERAL SALGADO,GENERAL SALGADO - SP,-20.64,-50.36,SP
678,GENERAL SAMPAIO,GENERAL SAMPAIO - CE,-4.05,-39.45,CE
4053,GENTIL,GENTIL - RS,-28.43,-52.03,RS
338,GENTIO DO OURO,GENTIO DO OURO - BA,-11.42,-42.5,BA
4922,GETULINA,GETULINA - SP,-21.79,-49.92,SP
4054,GETULIO VARGAS,GETULIO VARGAS - RS,-27.89,-52.22,RS
3033,GILBUES,GILBUES - PI,-9.83,-45.34,PI
54,GIRAU DO PONCIANO,GIRAU DO PONCIANO - AL,-9.88,-36.82,AL
4055,GIRUA,GIRUA - RS,-28.02,-54.35,RS
1646,GLAUCILANDIA,GLAUCILANDIA - MG,-16.85,-43.69,MG
4923,GLICERIO,GLICERIO - SP,-21.38,-50.21,SP
339,GLORIA,GLORIA - BA,-9.33,-38.25,BA
2225,GLORIA DE DOURADOS,GLORIA DE DOURADOS - MS,-22.41,-54.23,MS
2827,GLORIA DO GOITA,GLORIA DO GOITA - PE,-8,-35.29,PE
2310,GLORIA D'OESTE,GLORIA D'OESTE - MT,-15.76,-58.35,MT
4056,GLORINHA,GLORINHA - RS,-29.88,-50.76,RS
1195,GODOFREDO VIANA,GODOFREDO VIANA - MA,-1.4,-45.78,MA
3290,GODOY MOREIRA,GODOY MOREIRA - PR,-24.17,-51.92,PR
1647,GOIABEIRA,GOIABEIRA - MG,-18.98,-41.22,MG
1648,GOIANA,GOIANA - MG,-21.53,-43.2,MG
2828,GOIANA,GOIANA - PE,-7.56,-35,PE
968,GOIANAPOLIS,GOIANAPOLIS - GO,-16.51,-49.02,GO
969,GOIANDIRA,GOIANDIRA - GO,-18.13,-48.08,GO
970,GOIANESIA,GOIANESIA - GO,-15.31,-49.11,GO
2444,GOIANESIA DO PARA,GOIANESIA DO PARA - PA,-3.84,-49.09,PA
971,GOIANIA,GOIANIA - GO,-16.67,-49.25,GO
3701,GOIANINHA,GOIANINHA - RN,-6.26,-35.21,RN
972,GOIANIRA,GOIANIRA - GO,-16.49,-49.42,GO
5426,GOIANORTE,GOIANORTE - TO,-8.77,-48.93,TO
973,GOIAS,GOIAS - GO,-15.93,-50.14,GO
5427,GOIATINS,GOIATINS - TO,-7.71,-47.31,TO
974,GOIATUBA,GOIATUBA - GO,-18.01,-49.35,GO
3291,GOIOERE,GOIOERE - PR,-24.18,-53.02,PR
3292,GOIOXIM,GOIOXIM - PR,-25.19,-51.99,PR
1649,GONCALVES,GONCALVES - MG,-22.65,-45.85,MG
1196,GONCALVES DIAS,GONCALVES DIAS - MA,-5.15,-44.29,MA
340,GONGOGI,GONGOGI - BA,-14.32,-39.46,BA
1650,GONZAGA,GONZAGA - MG,-18.82,-42.47,MG
1651,GOUVEA,GOUVEA - MG,-18.45,-43.74,MG
975,GOUVELANDIA,GOUVELANDIA - GO,-18.64,-50.06,GO
1197,GOVERNADOR ARCHER,GOVERNADOR ARCHER - MA,-5.02,-44.27,MA
4454,GOVERNADOR CELSO RAMOS,GOVERNADOR CELSO RAMOS - SC,-27.31,-48.55,SC
3702,GOVERNADOR DIX-SEPT ROSADO,GOVERNADOR DIX-SEPT ROSADO - RN,-5.45,-37.52,RN
1198,GOVERNADOR EDISON LOBAO,GOVERNADOR EDISON LOBAO - MA,-5.74,-47.36,MA
1199,GOVERNADOR EUGENIO BARROS,GOVERNADOR EUGENIO BARROS - MA,-5.32,-44.24,MA
3841,GOVERNADOR JORGE TEIXEIRA,GOVERNADOR JORGE TEIXEIRA - RO,-10.52,-62.64,RO
1200,GOVERNADOR LUIZ ROCHA,GOVERNADOR LUIZ ROCHA - MA,-5.46,-44.07,MA
341,GOVERNADOR MANGABEIRA,GOVERNADOR MANGABEIRA - BA,-12.6,-39.04,BA
1201,GOVERNADOR NEWTON BELLO,GOVERNADOR NEWTON BELLO - MA,-3.42,-45.67,MA
1202,GOVERNADOR NUNES FREIRE,GOVERNADOR NUNES FREIRE - MA,-2.12,-45.88,MA
1652,GOVERNADOR VALADARES,GOVERNADOR VALADARES - MG,-18.85,-41.94,MG
679,GRACA,GRACA - CE,-4.04,-40.75,CE
1203,GRACA ARANHA,GRACA ARANHA - MA,-5.41,-44.33,MA
4674,GRACHO CARDOSO,GRACHO CARDOSO - SE,-10.22,-37.19,SE
1204,GRAJAU,GRAJAU - MA,-5.81,-46.13,MA
4057,GRAMADO,GRAMADO - RS,-29.37,-50.87,RS
4058,GRAMADO DOS LOUREIROS,GRAMADO DOS LOUREIROS - RS,-27.44,-52.91,RS
4059,GRAMADO XAVIER,GRAMADO XAVIER - RS,-29.26,-52.57,RS
3293,GRANDES RIOS,GRANDES RIOS - PR,-24.14,-51.5,PR
2829,GRANITO,GRANITO - PE,-7.71,-39.61,PE
680,GRANJA,GRANJA - CE,-3.12,-40.82,CE
681,GRANJEIRO,GRANJEIRO - CE,-6.88,-39.21,CE
1653,GRAO MOGOL,GRAO MOGOL - MG,-16.55,-42.89,MG
4455,GRAO PARA,GRAO PARA - SC,-28.18,-49.21,SC
2830,GRAVATA,GRAVATA - PE,-8.2,-35.56,PE
4060,GRAVATAI,GRAVATAI - RS,-29.94,-50.99,RS
4456,GRAVATAL,GRAVATAL - SC,-28.33,-49.03,SC
682,GROAIRAS,GROAIRAS - CE,-3.91,-40.38,CE
3703,GROSSOS,GROSSOS - RN,-4.98,-37.15,RN
1654,GRUPIARA,GRUPIARA - MG,-18.49,-47.72,MG
4061,GUABIJU,GUABIJU - RS,-28.54,-51.69,RS
4457,GUABIRUBA,GUABIRUBA - SC,-27.08,-48.98,SC
828,GUACUI,GUACUI - ES,-20.77,-41.67,ES
3034,GUADALUPE,GUADALUPE - PI,-6.78,-43.56,PI
4062,GUAIBA,GUAIBA - RS,-30.11,-51.32,RS
4924,GUAICARA,GUAICARA - SP,-21.62,-49.79,SP
4925,GUAIMBE,GUAIMBE - SP,-21.91,-49.89,SP
3294,GUAIRA,GUAIRA - PR,-24.08,-54.25,PR
4926,GUAIRA,GUAIRA - SP,-20.31,-48.31,SP
3295,GUAIRACA,GUAIRACA - PR,-22.93,-52.68,PR
683,GUAIUBA,GUAIUBA - CE,-4.04,-38.63,CE
148,GUAJARA,GUAJARA - AM,-7.54,-72.58,AM
3842,GUAJARA-MIRIM,GUAJARA-MIRIM - RO,-10.78,-65.33,RO
342,GUAJERU,GUAJERU - BA,-14.54,-41.94,BA
3704,GUAMARE,GUAMARE - RN,-5.1,-36.32,RN
3296,GUAMIRANGA,GUAMIRANGA - PR,-25.19,-50.8,PR
343,GUANAMBI,GUANAMBI - BA,-14.22,-42.78,BA
1655,GUANHAES,GUANHAES - MG,-18.77,-42.93,MG
